=~=~=~=~=~=~=~=~=~=~=~= PuTTY log 2022.05.16 14:56:39 =~=~=~=~=~=~=~=~=~=~=~=
j+4.37,M,52.83,M,5,0136*62
$GPGLL,5627.0762,N,00526.6131,W,135639,A,D*5A
$HCHDT,28.7,T*14
$HCHDG,,0,E,2.2,W*60
$GPRMC,135639,A,5627.0762,N,00526.6131,W,0.06,280.86,160522,2.19,W,D,S*51
$HCTHS,28.7,A*16
$IIVHW,28.7,T,,M,,N,,K*46
$GPVTG,280.86,T,,M,0.06,N,0.11,K,D*3A
$GPZDA,135639,16,05,2022,,*43
$TIROT,-7.4,A*15
$TIROT,-8,A*00
$GPGGA,135641,5627.0762,N,00526.6131,W,2,6,1.7,64.46,M,52.83,M,3,0136*6D
$GPGSA,A,3,26,21,16,07,08,10,,,,,,,2.7,1.7,2.09*04
$GPGLL,5627.0762,N,00526.6131,W,135641,A,D*55
$GPGSV,3,1,12,26,08,164,40,23,42,072,17,21,28,234,42,18,11,060,26*76
$GPGSV,3,2,12,16,36,172,40,15,11,036,32,07,22,290,34,08,55,280,44*70
$GPGSV,3,3,12,13,08,004,29,10,45,118,52,49,25,168,42,36,17,138,42*7C
$HCHDT,28.2,T*11
$HCHDG,,0,E,2.2,W*60
$GPRMC,135641,A,5627.0762,N,00526.6131,W,0.12,342.15,160522,2.19,W,D,S*5E
$HCTHS,28.2,A*13
$IIVHW,28.2,T,,M,,N,,K*43
$GPVTG,342.15,T,,M,0.12,N,0.22,K,D*3A
$GPZDA,135641,16,05,2022,,*4C
$TIROT,-8.1,A*1F
$TIROT,-8.2,A*1C
$GPGGA,135643,5627.0761,N,00526.6131,W,2,6,1.7,64.44,M,52.83,M,5,0136*68
$GPGLL,5627.0761,N,00526.6131,W,135643,A,D*54
$HCHDT,27.7,T*1B
$HCHDG,,0,E,2.2,W*60
$GPRMC,135643,A,5627.0761,N,00526.6131,W,0.06,155.45,160522,2.19,W,D,S*5B
$HCTHS,27.7,A*19
$IIVHW,27.7,T,,M,,N,,K*49
$GPVTG,155.45,T,,M,0.06,N,0.11,K,D*3E
$GPZDA,135643,16,05,2022,,*4E
$TIROT,-8.2,A*1C
$TIROT,-8.1,A*1F
$GPGGA,135645,5627.0762,N,00526.6131,W,2,5,2.7,64.61,M,52.83,M,3,0136*6C
$GPGSA,A,3,26,21,16,08,10,,,,,,,,4.58,2.7,3.7*03
$GPGLL,5627.0762,N,00526.6131,W,135645,A,D*51
$GPGSV,3,1,12,26,08,164,42,23,42,072,28,21,28,234,42,18,11,060,33*7C
$GPGSV,3,2,12,16,36,172,39,15,11,036,31,07,22,290,26,08,55,280,44*7E
$GPGSV,3,3,12,13,08,004,28,10,45,118,51,49,25,168,42,36,17,138,39*72
$HCHDT,27,T*02
$HCHDG,,0,E,2.2,W*60
$GPRMC,135645,A,5627.0762,N,00526.6131,W,0.14,28.93,160522,2.19,W,D,S*6D
$HCTHS,27,A*00
$IIVHW,27,T,,M,,N,,K*50
$GPVTG,28.93,T,,M,0.14,N,0.25,K,D*0A
$GPZDA,135645,16,05,2022,,*48
$TIROT,-8.5,A*1B
$TIROT,-8.6,A*18
$GPGGA,135647,5627.0762,N,00526.6131,W,2,5,2.7,64.72,M,52.83,M,5,0136*6A
$GPGLL,5627.0762,N,00526.6131,W,135647,A,D*53
$HCHDT,26.5,T*18
$HCHDG,,0,E,2.2,W*60
$GPRMC,135647,A,5627.0762,N,00526.6131,W,0.19,185.54,160522,2.19,W,D,S*5F
$HCTHS,26.5,A*1A
$IIVHW,26.5,T,,M,,N,,K*4A
$GPVTG,185.54,T,,M,0.19,N,0.36,K,D*38
$GPZDA,135647,16,05,2022,,*4A
$TIROT,-8.6,A*18
$TIROT,-8.6,A*18
$GPGGA,135649,5627.0761,N,00526.6131,W,2,6,1.7,64.92,M,52.83,M,3,0136*6F
$GPGSA,A,3,26,21,16,07,08,10,,,,,,,2.7,1.7,2.09*04
$GPGLL,5627.0761,N,00526.6131,W,135649,A,D*5E
$GPGSV,3,1,12,26,08,164,37,23,42,072,26,21,28,234,42,18,11,060,20*72
$GPGSV,3,2,12,16,36,172,43,15,11,036,28,07,21,290,32,08,55,280,46*7F
$GPGSV,3,3,12,13,08,004,33,10,45,118,52,49,25,168,44,36,17,138,42*71
$HCHDT,26.2,T*1F
$HCHDG,,0,E,2.2,W*60
$GPRMC,135649,A,5627.0761,N,00526.6131,W,0.23,325.37,160522,2.19,W,D,S*56
$HCTHS,26.2,A*1D
$IIVHW,26.2,T,,M,,N,,K*4D
$GPVTG,325.37,T,,M,0.23,N,0.43,K,D*3E
$GPZDA,135649,16,05,2022,,*44
$TIROT,-8.7,A*19
$TIROT,-8.5,A*1B
$GPGGA,135651,5627.0761,N,00526.6131,W,2,6,1.7,65.06,M,52.83,M,5,0136*6C
$GPGLL,5627.0761,N,00526.6131,W,135651,A,D*57
$HCHDT,25.9,T*17
$HCHDG,,0,E,2.2,W*60
$GPRMC,135651,A,5627.0761,N,00526.6131,W,0,291.43,160522,2.19,W,D,S*7D
$HCTHS,25.9,A*15
$IIVHW,25.9,T,,M,,N,,K*45
$GPVTG,291.43,T,,M,0,N,0,K,D*35
$GPZDA,135651,16,05,2022,,*4D
$TIROT,-8.7,A*19
$TIROT,-8.6,A*18
$GPGGA,135653,5627.0761,N,00526.6131,W,2,6,1.7,65.23,M,52.83,M,3,0136*6F
$GPGSA,A,3,26,21,16,07,08,10,,,,,,,2.7,1.7,2.09*04
$GPGLL,5627.0761,N,00526.6131,W,135653,A,D*55
$GPGSV,3,1,12,26,08,164,37,23,42,072,28,21,28,234,42,18,11,060,17*78
$GPGSV,3,2,12,16,36,172,43,15,11,036,23,07,21,290,32,08,55,280,45*77
$GPGSV,3,3,12,13,08,004,28,10,45,118,52,49,25,168,44,36,17,138,42*7B
$HCHDT,25.6,T*18
$HCHDG,,0,E,2.2,W*60
$GPRMC,135653,A,5627.0761,N,00526.6131,W,0.1,324.83,160522,2.19,W,D,S*63
$HCTHS,25.6,A*1A
$IIVHW,25.6,T,,M,,N,,K*4A
$GPVTG,324.83,T,,M,0.1,N,0.18,K,D*0E
$GPZDA,135653,16,05,2022,,*4F
$TIROT,-8.6,A*18
$TIROT,-8.4,A*1A
$GPGGA,135655,5627.0761,N,00526.6131,W,2,5,2.7,65.42,M,52.83,M,5,0136*68
$GPGLL,5627.0761,N,00526.6131,W,135655,A,D*53
$HCHDT,25.3,T*1D
$HCHDG,,0,E,2.2,W*60
$GPRMC,135655,A,5627.0761,N,00526.6131,W,0.08,151.71,160522,2.19,W,D,S*51
$HCTHS,25.3,A*1F
$IIVHW,25.3,T,,M,,N,,K*4F
$GPVTG,151.71,T,,M,0.08,N,0.14,K,D*36
$GPZDA,135655,16,05,2022,,*49
$TIROT,-8.1,A*1F
$TIROT,-10.1,A*26
$GPGGA,135657,5627.0761,N,00526.6131,W,2,5,2.7,65.41,M,52.83,M,3,0136*6F
$GPGSA,A,3,26,21,16,08,10,,,,,,,,4.58,2.7,3.7*03
$GPGLL,5627.0761,N,00526.6131,W,135657,A,D*51
$GPGSV,3,1,12,26,08,164,37,23,42,072,33,21,28,234,41,18,11,060,28*7D
$GPGSV,3,2,12,16,36,172,43,15,11,036,17,07,21,290,26,08,56,280,45*76
$GPGSV,3,3,12,13,08,004,32,10,45,118,52,49,25,168,42,36,17,138,44*70
$HCHDT,24.7,T*18
$HCHDG,,0,E,2.2,W*60
$GPRMC,135657,A,5627.0761,N,00526.6131,W,0.12,47.82,160522,2.19,W,D,S*62
$HCTHS,24.7,A*1A
$IIVHW,24.7,T,,M,,N,,K*4A
$GPVTG,47.82,T,,M,0.12,N,0.22,K,D*02
$GPZDA,135657,16,05,2022,,*4B
$TIROT,-10.1,A*26
$TIROT,-9.9,A*16
$GPGGA,135659,5627.0761,N,00526.6130,W,2,5,2.7,65.38,M,52.83,M,5,0136*68
$GPGLL,5627.0761,N,00526.6130,W,135659,A,D*5E
$HCHDT,24,T*01
$HCHDG,,0,E,2.2,W*60
$GPRMC,135659,A,5627.0761,N,00526.6130,W,0.04,213.68,160522,2.19,W,D,S*5D
$HCTHS,24,A*03
$IIVHW,24,T,,M,,N,,K*53
$GPVTG,213.68,T,,M,0.04,N,0.07,K,D*35
$GPZDA,135659,16,05,2022,,*45
$TIROT,-10.5,A*22
$TIROT,-11.3,A*25
$GPGGA,135701,5627.0760,N,00526.6130,W,2,5,2.7,65.5,M,52.83,M,3,0136*5D
$GPGSA,A,3,26,21,16,08,10,,,,,,,,4.58,2.7,3.7*03
$GPGLL,5627.0760,N,00526.6130,W,135701,A,D*53
$GPGSV,3,1,12,26,08,164,36,23,41,072,33,21,28,234,42,18,11,060,27*73
$GPGSV,3,2,12,16,36,172,40,15,11,036,30,07,21,290,33,08,56,280,45*74
$GPGSV,3,3,12,13,08,004,30,10,45,118,52,49,25,168,40,36,17,138,44*70
$HCHDT,23.3,T*1B
$HCHDG,,0,E,2.2,W*60
$GPRMC,135701,A,5627.0760,N,00526.6130,W,0.12,104.5,160522,2.19,W,D,S*69
$HCTHS,23.3,A*19
$IIVHW,23.3,T,,M,,N,,K*49
$GPVTG,104.5,T,,M,0.12,N,0.22,K,D*0B
$GPZDA,135701,16,05,2022,,*49
$TIROT,-11.9,A*2F
$TIROT,-12.1,A*24
$GPGGA,135703,5627.0760,N,00526.6130,W,2,5,2.7,65.59,M,52.83,M,5,0136*60
$GPGLL,5627.0760,N,00526.6130,W,135703,A,D*51
$HCHDT,22.4,T*1D
$HCHDG,,0,E,2.2,W*60
$GPRMC,135703,A,5627.0760,N,00526.6130,W,0.17,15.02,160522,2.19,W,D,S*68
$HCTHS,22.4,A*1F
$IIVHW,22.4,T,,M,,N,,K*4F
$GPVTG,15.02,T,,M,0.17,N,0.32,K,D*09
$GPZDA,135703,16,05,2022,,*4B
$TIROT,-13.3,A*27
$TIROT,-13.9,A*2D
$GPGGA,135705,5627.0760,N,00526.6130,W,2,5,2.7,65.68,M,52.83,M,3,0136*62
$GPGSA,A,3,26,21,16,08,10,,,,,,,,4.58,2.7,3.7*03
$GPGLL,5627.0760,N,00526.6130,W,135705,A,D*57
$GPGSV,3,1,12,26,08,164,35,23,41,072,35,21,28,234,42,18,11,060,34*74
$GPGSV,3,2,12,16,36,172,40,15,11,036,28,07,21,290,34,08,56,280,45*7A
$GPGSV,3,3,12,13,08,004,24,10,45,118,53,49,25,168,40,36,17,138,45*75
$HCHDT,21.6,T*1C
$HCHDG,,0,E,2.2,W*60
$GPRMC,135705,A,5627.0760,N,00526.6130,W,0.08,48.62,160522,2.19,W,D,S*6E
$HCTHS,21.6,A*1E
$IIVHW,21.6,T,,M,,N,,K*4E
$GPVTG,48.62,T,,M,0.08,N,0.14,K,D*0D
$GPZDA,135705,16,05,2022,,*4D
$TIROT,-14.3,A*20
$TIROT,-14.4,A*27
$GPGGA,135707,5627.0760,N,00526.6130,W,2,5,2.7,65.72,M,52.83,M,5,0136*6D
$GPGLL,5627.0760,N,00526.6130,W,135707,A,D*55
$HCHDT,21,T*04
$HCHDG,,0,E,2.2,W*60
$GPRMC,135707,A,5627.0760,N,00526.6130,W,0.08,349.91,160522,2.19,W,D,S*52
$HCTHS,21,A*06
$IIVHW,21,T,,M,,N,,K*56
$GPVTG,349.91,T,,M,0.08,N,0.14,K,D*33
$GPZDA,135707,16,05,2022,,*4F
$TIROT,-14.3,A*20
$TIROT,-14.1,A*22
$GPGGA,135709,5627.0760,N,00526.6130,W,2,5,2.7,65.75,M,52.83,M,3,0136*62
$GPGSA,A,3,26,21,16,08,10,,,,,,,,4.58,2.7,3.7*03
$GPGLL,5627.0760,N,00526.6130,W,135709,A,D*5B
$GPGSV,3,1,12,26,08,164,37,23,41,072,33,21,28,234,41,18,11,060,28*7E
$GPGSV,3,2,12,16,36,172,40,15,11,036,20,07,21,290,33,08,56,280,44*74
$GPGSV,3,3,12,13,08,004,23,10,45,118,52,49,25,168,38,36,17,138,43*7A
$HCHDT,20.5,T*1E
$HCHDG,,0,E,2.2,W*60
$GPRMC,135709,A,5627.0760,N,00526.6130,W,0.06,33.37,160522,2.19,W,D,S*60
$HCTHS,20.5,A*1C
$IIVHW,20.5,T,,M,,N,,K*4C
$GPVTG,33.37,T,,M,0.06,N,0.11,K,D*0A
$GPZDA,135709,16,05,2022,,*41
$TIROT,-13.8,A*2C
$TIROT,-13.7,A*23
$GPGGA,135711,5627.0760,N,00526.6130,W,2,5,2.7,65.81,M,52.83,M,5,0136*66
$GPGLL,5627.0760,N,00526.6130,W,135711,A,D*52
$HCHDT,20,T*05
$HCHDG,,0,E,2.2,W*60
$GPRMC,135711,A,5627.0760,N,00526.6130,W,0.14,0.41,160522,2.19,W,D,S*5B
$HCTHS,20,A*07
$IIVHW,20,T,,M,,N,,K*57
$GPVTG,0.41,T,,M,0.14,N,0.25,K,D*3F
$GPZDA,135711,16,05,2022,,*48
$TIROT,-13.7,A*23
$TIROT,-13.4,A*20
$GPGGA,135713,5627.0759,N,00526.6130,W,2,5,2.7,65.83,M,52.83,M,3,0136*6A
$GPGSA,A,3,26,21,16,08,10,,,,,,,,4.58,2.7,3.7*03
$GPGLL,5627.0759,N,00526.6130,W,135713,A,D*5A
$GPGSV,3,1,12,26,08,164,37,23,41,072,29,21,28,234,41,18,11,060,32*7E
$GPGSV,3,2,12,16,36,172,41,15,11,034,28,07,21,290,32,08,56,280,44*7E
$GPGSV,3,3,12,13,08,004,28,10,45,118,52,49,25,168,37,36,17,138,43*7E
$HCHDT,19.7,T*16
$HCHDG,,0,E,2.2,W*60
$GPRMC,135713,A,5627.0759,N,00526.6130,W,0.21,174.75,160522,2.19,W,D,S*50
$HCTHS,19.7,A*14
$IIVHW,19.7,T,,M,,N,,K*44
$GPVTG,174.75,T,,M,0.21,N,0.4,K,D*0F
$GPZDA,135713,16,05,2022,,*4A
$TIROT,-13.2,A*26
$TIROT,-13.2,A*26
$GPGGA,135715,5627.0759,N,00526.6130,W,2,6,1.7,65.86,M,52.83,M,5,0136*6F
$GPGLL,5627.0759,N,00526.6130,W,135715,A,D*5C
$HCHDT,19.3,T*12
$HCHDG,,0,E,2.2,W*60
$GPRMC,135715,A,5627.0759,N,00526.6130,W,0,28.99,160522,2.19,W,D,S*41
$HCTHS,19.3,A*10
$IIVHW,19.3,T,,M,,N,,K*40
$GPVTG,28.99,T,,M,0,N,0,K,D*02
$GPZDA,135715,16,05,2022,,*4C
$TIROT,-13.1,A*25
$TIROT,-13,A*3A
$GPGGA,135717,5627.0759,N,00526.6130,W,2,6,1.7,65.9,M,52.83,M,3,0136*5C
$GPGSA,A,3,26,21,16,07,08,10,,,,,,,2.7,1.7,2.09*04
$GPGLL,5627.0759,N,00526.6130,W,135717,A,D*5E
$GPGSV,3,1,12,26,08,164,37,23,41,072,22,21,28,234,40,18,11,060,33*75
$GPGSV,3,2,12,16,36,172,42,15,11,034,31,07,21,290,32,08,56,280,44*75
$GPGSV,3,3,12,13,08,004,32,10,45,118,53,49,25,168,38,36,17,138,44*7C
$HCHDT,18.9,T*19
$HCHDG,,0,E,2.2,W*60
$GPRMC,135717,A,5627.0759,N,00526.6130,W,0.25,211.77,160522,2.19,W,D,S*52
$HCTHS,18.9,A*1B
$IIVHW,18.9,T,,M,,N,,K*4B
$GPVTG,211.77,T,,M,0.25,N,0.47,K,D*3E
$GPZDA,135717,16,05,2022,,*4E
$TIROT,-13.1,A*25
$TIROT,-13.2,A*26
$GPGGA,135719,5627.0759,N,00526.6130,W,2,6,1.7,65.9,M,52.83,M,5,0136*54
$GPGLL,5627.0759,N,00526.6130,W,135719,A,D*50
$HCHDT,18.5,T*15
$HCHDG,,0,E,2.2,W*60
$GPRMC,135719,A,5627.0759,N,00526.6130,W,0.02,350.07,160522,2.19,W,D,S*5A
$HCTHS,18.5,A*17
$IIVHW,18.5,T,,M,,N,,K*47
$GPVTG,350.07,T,,M,0.02,N,0.04,K,D*3F
$GPZDA,135719,16,05,2022,,*40
$TIROT,-13.1,A*25
$TIROT,-13.1,A*25
$GPGGA,135721,5627.0759,N,00526.6130,W,2,6,1.7,65.9,M,52.83,M,3,0136*59
$GPGSA,A,3,26,21,16,07,08,10,,,,,,,2.7,1.7,2.09*04
$GPGLL,5627.0759,N,00526.6130,W,135721,A,D*5B
$GPGSV,3,1,12,26,08,164,36,23,41,072,17,21,29,234,40,18,11,060,17*75
$GPGSV,3,2,12,16,36,172,42,15,11,034,29,07,21,290,33,08,56,280,43*7A
$GPGSV,3,3,12,13,08,004,24,10,45,118,53,49,25,168,38,36,17,138,43*7C
$HCHDT,18.2,T*12
$HCHDG,,0,E,2.2,W*60
$GPRMC,135721,A,5627.0759,N,00526.6130,W,0.04,322.09,160522,2.19,W,D,S*5C
$HCTHS,18.2,A*10
$IIVHW,18.2,T,,M,,N,,K*40
$GPVTG,322.09,T,,M,0.04,N,0.07,K,D*31
$GPZDA,135721,16,05,2022,,*4B
$TIROT,-13.1,A*25
$TIROT,-13.1,A*25
$GPGGA,135723,5627.0759,N,00526.6130,W,2,6,1.7,65.89,M,52.83,M,5,0136*65
$GPGLL,5627.0759,N,00526.6130,W,135723,A,D*59
$HCHDT,17.9,T*16
$HCHDG,,0,E,2.2,W*60
$GPRMC,135723,A,5627.0759,N,00526.6130,W,0.14,289.97,160522,2.19,W,D,S*58
$HCTHS,17.9,A*14
$IIVHW,17.9,T,,M,,N,,K*44
$GPVTG,289.97,T,,M,0.14,N,0.25,K,D*37
$GPZDA,135723,16,05,2022,,*49
$TIROT,-13.1,A*25
$TIROT,-13.1,A*25
$GPGGA,135725,5627.0759,N,00526.6130,W,2,5,1.7,65.87,M,52.83,M,3,0136*68
$GPGSA,A,3,21,16,07,08,10,,,,,,,,3.62,1.7,3.2*08
$GPGLL,5627.0759,N,00526.6130,W,135725,A,D*5F
$GPGSV,3,1,12,26,08,164,34,23,41,072,20,21,29,234,40,18,11,060,24*73
$GPGSV,3,2,12,16,36,172,42,15,11,034,17,07,21,290,33,08,56,280,43*77
$GPGSV,3,3,12,13,08,004,24,10,45,118,53,49,25,168,37,36,17,138,43*73
$HCHDT,17.4,T*1B
$HCHDG,,0,E,2.2,W*60
$GPRMC,135725,A,5627.0759,N,00526.6130,W,0.08,214.48,160522,2.19,W,D,S*55
$HCTHS,17.3,A*1E
$IIVHW,17.3,T,,M,,N,,K*4E
$GPVTG,214.48,T,,M,0.08,N,0.14,K,D*3E
$GPZDA,135725,16,05,2022,,*4F
$TIROT,-13.1,A*25
$TIROT,-13.2,A*26
$GPGGA,135727,5627.0759,N,00526.6130,W,2,5,1.7,65.84,M,52.83,M,5,0136*6F
$GPGLL,5627.0759,N,00526.6130,W,135727,A,D*5D
$HCHDT,16.8,T*16
$HCHDG,,0,E,2.2,W*60
$GPRMC,135727,A,5627.0759,N,00526.6130,W,0.16,248.51,160522,2.19,W,D,S*59
$HCTHS,16.8,A*14
$IIVHW,16.8,T,,M,,N,,K*44
$GPVTG,248.51,T,,M,0.16,N,0.29,K,D*3E
$GPZDA,135727,16,05,2022,,*4D
$TIROT,-13.2,A*26
$TIROT,-13.2,A*26
$GPGGA,135729,5627.0759,N,00526.6130,W,2,5,1.7,65.81,M,52.83,M,3,0136*62
$GPGSA,A,3,21,16,07,08,10,,,,,,,,3.62,1.7,3.2*08
$GPGLL,5627.0759,N,00526.6130,W,135729,A,D*53
$GPGSV,3,1,12,26,07,164,34,23,41,072,29,21,29,234,40,18,11,060,30*70
$GPGSV,3,2,12,16,36,172,41,15,11,034,28,07,21,290,34,08,56,280,44*78
$GPGSV,3,3,12,13,08,002,24,10,45,118,53,49,25,168,38,36,17,138,43*7A
$HCHDT,16.2,T*1C
$HCHDG,,0,E,2.2,W*60
$GPRMC,135729,A,5627.0759,N,00526.6130,W,0.1,172.69,160522,2.19,W,D,S*60
$HCTHS,16.2,A*1E
$IIVHW,16.2,T,,M,,N,,K*4E
$GPVTG,172.69,T,,M,0.1,N,0.18,K,D*0B
$GPZDA,135729,16,05,2022,,*43
$TIROT,-13.2,A*26
$TIROT,-13.1,A*25
$GPGGA,135731,5627.0759,N,00526.6130,W,2,6,1.7,65.81,M,52.83,M,5,0136*6E
$GPGLL,5627.0759,N,00526.6130,W,135731,A,D*5A
$HCHDT,15.7,T*1A
$HCHDG,,0,E,2.2,W*60
$GPRMC,135731,A,5627.0759,N,00526.6130,W,0.17,20.17,160522,2.19,W,D,S*61
$HCTHS,15.6,A*19
$IIVHW,15.6,T,,M,,N,,K*49
$GPVTG,20.17,T,,M,0.17,N,0.32,K,D*0B
$GPZDA,135731,16,05,2022,,*4A
$TIROT,-13,A*3A
$TIROT,-13,A*3A
$GPGGA,135733,5627.0759,N,00526.6129,W,2,6,1.7,65.83,M,52.83,M,3,0136*60
$GPGSA,A,3,26,21,16,07,08,10,,,,,,,2.7,1.7,2.09*04
$GPGLL,5627.0759,N,00526.6129,W,135733,A,D*50
$GPGSV,3,1,12,26,07,164,34,23,41,072,29,21,29,234,40,18,11,060,30*70
$GPGSV,3,2,12,16,36,172,41,15,11,034,34,07,21,290,33,08,56,280,43*75
$GPGSV,3,3,12,13,08,002,28,10,45,118,52,49,25,168,38,36,17,138,43*77
$HCHDT,15.1,T*1C
$HCHDG,,0,E,2.2,W*60
$GPRMC,135733,A,5627.0759,N,00526.6129,W,0.17,307.87,160522,2.19,W,D,S*54
$HCTHS,15.1,A*1E
$IIVHW,15.1,T,,M,,N,,K*4E
$GPVTG,307.87,T,,M,0.17,N,0.32,K,D*34
$GPZDA,135733,16,05,2022,,*48
$TIROT,-12.9,A*2C
$TIROT,-13,A*3A
$GPGGA,135735,5627.0759,N,00526.6129,W,2,6,1.7,65.88,M,52.83,M,5,0136*6B
$GPGLL,5627.0759,N,00526.6129,W,135735,A,D*56
$HCHDT,14.6,T*1A
$HCHDG,,0,E,2.2,W*60
$GPRMC,135735,A,5627.0760,N,00526.6129,W,0.39,233.32,160522,2.19,W,D,S*5C
$HCTHS,14.6,A*18
$IIVHW,14.6,T,,M,,N,,K*48
$GPVTG,233.32,T,,M,0.39,N,0.72,K,D*34
$GPZDA,135735,16,05,2022,,*4E
$TIROT,-12.9,A*2C
$TIROT,-13,A*3A
$GPGGA,135737,5627.0760,N,00526.6129,W,2,6,1.7,65.85,M,52.83,M,3,0136*68
$GPGSA,A,3,26,21,16,07,08,10,,,,,,,2.7,1.7,2.09*04
$GPGLL,5627.0760,N,00526.6129,W,135737,A,D*5E
$GPGSV,3,1,12,26,07,164,32,23,41,072,30,21,29,236,39,18,11,060,24*77
$GPGSV,3,2,12,16,36,172,42,15,11,034,28,07,21,290,33,08,56,280,43*7B
$GPGSV,3,3,12,13,08,002,17,10,45,118,53,49,25,168,38,36,17,138,42*7B
$HCHDT,14.1,T*1D
$HCHDG,,0,E,2.2,W*60
$GPRMC,135737,A,5627.0760,N,00526.6129,W,0.27,213.3,160522,2.19,W,D,C*71
$HCTHS,14.1,A*1F
$IIVHW,14.1,T,,M,,N,,K*4F
$GPVTG,213.3,T,,M,0.27,N,0.5,K,D*3B
$GPZDA,135737,16,05,2022,,*4C
$TIROT,-13,A*3A
$TIROT,-12.9,A*2C
$GPGGA,135739,5627.0760,N,00526.6129,W,2,6,1.7,65.94,M,52.83,M,5,0136*60
$GPGLL,5627.0760,N,00526.6129,W,135739,A,D*50
$HCHDT,13.6,T*1D
$HCHDG,,0,E,2.2,W*60
$GPRMC,135739,A,5627.0760,N,00526.6129,W,0.08,354.87,160522,2.19,W,D,C*4C
$HCTHS,13.6,A*1F
$IIVHW,13.6,T,,M,,N,,K*4F
$GPVTG,354.87,T,,M,0.08,N,0.14,K,D*38
$GPZDA,135740,16,05,2022,,*4C
$TIROT,-13,A*3A
$TIROT,-13,A*3A
$GPGGA,135741,5627.0760,N,00526.6129,W,2,6,1.7,66,M,52.83,M,3,0136*49
$GPGSA,A,3,26,21,16,07,08,10,,,,,,,2.7,1.7,2.09*04
$GPGLL,5627.0760,N,00526.6129,W,135741,A,D*5F
$GPGSV,3,1,12,26,07,164,33,23,41,070,26,21,29,236,39,18,11,060,29*7E
$GPGSV,3,2,12,16,36,172,42,15,11,034,20,07,21,290,33,08,56,280,43*73
$GPGSV,3,3,12,13,08,002,33,10,45,118,53,49,25,168,38,36,17,138,43*7C
$HCHDT,13.1,T*1A
$HCHDG,,0,E,2.2,W*60
$GPRMC,135741,A,5627.0760,N,00526.6129,W,0.12,357.78,160522,2.19,W,D,C*4B
$HCTHS,13.1,A*18
$IIVHW,13.1,T,,M,,N,,K*48
$GPVTG,357.78,T,,M,0.12,N,0.22,K,D*35
$GPZDA,135742,16,05,2022,,*4E
$TIROT,-13,A*3A
$TIROT,-13.2,A*26
$GPGGA,135743,5627.0761,N,00526.6128,W,2,6,1.7,65.97,M,52.83,M,5,0136*6E
$GPGLL,5627.0761,N,00526.6128,W,135743,A,D*5D
$HCHDT,12.6,T*1C
$HCHDG,,0,E,2.2,W*60
$GPRMC,135743,A,5627.0761,N,00526.6128,W,0.16,114.71,160522,2.19,W,D,C*41
$HCTHS,12.6,A*1E
$IIVHW,12.6,T,,M,,N,,K*4E
$GPVTG,114.71,T,,M,0.16,N,0.29,K,D*36
$GPZDA,135744,16,05,2022,,*48
$TIROT,-13.1,A*25
$TIROT,-13.1,A*25
$GPGGA,135745,5627.0761,N,00526.6128,W,2,6,1.7,65.92,M,52.83,M,3,0136*6B
$GPGSA,A,3,26,21,16,07,08,10,,,,,,,2.7,1.7,2.09*04
$GPGLL,5627.0761,N,00526.6128,W,135745,A,D*5B
$GPGSV,3,1,12,26,07,164,31,23,41,070,27,21,29,236,38,18,11,060,24*71
$GPGSV,3,2,12,16,36,172,42,15,11,034,27,07,21,290,31,08,56,280,43*76
$GPGSV,3,3,12,13,08,002,20,10,45,118,53,49,25,168,38,36,17,138,43*7E
$HCHDT,12.1,T*1B
$HCHDG,,0,E,2.2,W*60
$GPRMC,135745,A,5627.0761,N,00526.6128,W,0.02,127.06,160522,2.19,W,D,C*42
$HCTHS,12.1,A*19
$IIVHW,12.1,T,,M,,N,,K*49
$GPVTG,127.06,T,,M,0.02,N,0.04,K,D*3C
$GPZDA,135746,16,05,2022,,*4A
$TIROT,-13.1,A*25
$TIROT,-13.2,A*26
$GPGGA,135747,5627.0761,N,00526.6128,W,2,5,1.7,65.85,M,52.83,M,5,0136*6A
$GPGLL,5627.0761,N,00526.6128,W,135747,A,D*59
$HCHDT,11.6,T*1F
$HCHDG,,0,E,2.2,W*60
$GPRMC,135747,A,5627.0761,N,00526.6128,W,0.08,212.11,160522,2.19,W,D,C*49
$HCTHS,11.6,A*1D
$IIVHW,11.6,T,,M,,N,,K*4D
$GPVTG,212.11,T,,M,0.08,N,0.14,K,D*34
$GPZDA,135748,16,05,2022,,*44
$TIROT,-13,A*3A
$TIROT,-13.1,A*25
$GPGGA,135749,5627.0762,N,00526.6127,W,2,5,1.7,65.82,M,52.83,M,3,0136*69
$GPGSA,A,3,21,16,07,08,10,,,,,,,,3.62,1.7,3.2*08
$GPGLL,5627.0762,N,00526.6127,W,135749,A,D*5B
$GPGSV,3,1,12,26,07,164,26,23,41,070,20,21,29,236,38,18,11,060,33*76
$GPGSV,3,2,12,16,36,172,41,15,11,034,30,07,21,290,33,08,56,280,42*70
$GPGSV,3,3,12,13,08,002,34,10,45,118,53,49,25,168,37,36,17,138,43*74
$HCHDT,11.1,T*18
$HCHDG,,0,E,2.2,W*60
$GPRMC,135749,A,5627.0762,N,00526.6127,W,0.16,143.62,160522,2.19,W,D,C*47
$HCTHS,11.1,A*1A
$IIVHW,11.1,T,,M,,N,,K*4A
$GPVTG,143.62,T,,M,0.16,N,0.29,K,D*36
$GPZDA,135750,16,05,2022,,*4D
$TIROT,-13,A*3A
$TIROT,-10.7,A*20
$GPGGA,135751,5627.0762,N,00526.6127,W,2,5,1.7,65.72,M,52.83,M,5,0136*69
$GPGLL,5627.0762,N,00526.6127,W,135751,A,D*52
$HCHDT,10.7,T*1F
$HCHDG,,0,E,2.2,W*60
$GPRMC,135751,A,5627.0762,N,00526.6127,W,0.1,8.99,160522,2.19,W,D,C*72
$HCTHS,10.7,A*1D
$IIVHW,10.7,T,,M,,N,,K*4D
$GPVTG,8.99,T,,M,0.1,N,0.18,K,D*08
$GPZDA,135752,16,05,2022,,*4F
$TIROT,-11.6,A*20
$TIROT,-12.1,A*24
$GPGGA,135753,5627.0762,N,00526.6127,W,2,4,4.19,65.69,M,52.83,M,3,0136*5C
$GPGSA,A,3,21,16,08,10,,,,,,,,,10.57,4.19,9.7*0E
$GPGLL,5627.0762,N,00526.6127,W,135753,A,D*50
$GPGSV,3,1,12,26,07,164,20,23,41,070,22,21,29,236,40,18,11,060,26*79
$GPGSV,3,2,12,16,36,172,43,15,11,034,33,07,21,290,17,08,56,280,42*77
$GPGSV,3,3,12,13,08,002,29,10,45,118,54,49,25,168,40,36,17,138,41*7D
$HCHDT,10.3,T*1B
$HCHDG,,0,E,2.2,W*60
$GPRMC,135753,A,5627.0763,N,00526.6127,W,0.04,351.65,160522,2.19,W,D,S*58
$HCTHS,10.3,A*19
$IIVHW,10.3,T,,M,,N,,K*49
$GPVTG,351.65,T,,M,0.04,N,0.07,K,D*3F
$GPZDA,135754,16,05,2022,,*49
$TIROT,-12.3,A*26
$TIROT,-12.4,A*21
$GPGGA,135755,5627.0763,N,00526.6127,W,2,4,4.19,65.62,M,52.83,M,5,0136*56
$GPGLL,5627.0763,N,00526.6127,W,135755,A,D*57
$HCHDT,9.8,T*28
$HCHDG,,0,E,2.2,W*60
$GPRMC,135755,A,5627.0763,N,00526.6127,W,0.29,11.05,160522,2.19,W,D,S*60
$HCTHS,9.8,A*2A
$IIVHW,9.8,T,,M,,N,,K*7A
$GPVTG,11.05,T,,M,0.29,N,0.54,K,D*07
$GPZDA,135756,16,05,2022,,*4B
$TIROT,-12.5,A*20
$TIROT,-12.6,A*23
$GPGGA,135757,5627.0763,N,00526.6126,W,2,4,4.19,65.77,M,52.83,M,3,0136*57
$GPGSA,A,3,21,16,08,10,,,,,,,,,10.66,4.19,9.8*03
$GPGLL,5627.0763,N,00526.6126,W,135757,A,D*54
$GPGSV,3,1,12,26,07,164,27,23,41,070,33,21,29,236,39,18,11,060,31*76
$GPGSV,3,2,12,16,36,172,43,15,11,034,27,07,21,290,30,08,56,280,42*77
$GPGSV,3,3,12,13,08,002,31,10,45,118,54,49,25,168,40,36,17,138,40*75
$HCHDT,9.4,T*24
$HCHDG,,0,E,2.2,W*60
$GPRMC,135757,A,5627.0763,N,00526.6126,W,0.04,344.36,160522,2.19,W,D,V*5A
$HCTHS,9.3,A*21
$IIVHW,9.3,T,,M,,N,,K*71
$GPVTG,344.36,T,,M,0.04,N,0.07,K,D*3D
$GPZDA,135758,16,05,2022,,*45
$TIROT,-12.7,A*22
$TIROT,-12.8,A*2D
$GPGGA,135759,5627.0763,N,00526.6126,W,2,4,4.19,65.81,M,52.83,M,5,0136*56
$GPGLL,5627.0763,N,00526.6126,W,135759,A,D*5A
$HCHDT,8.9,T*28
$HCHDG,,0,E,2.2,W*60
$GPRMC,135759,A,5627.0763,N,00526.6126,W,0.39,10.71,160522,2.19,W,D,V*6B
$HCTHS,8.9,A*2A
$IIVHW,8.9,T,,M,,N,,K*7A
$GPVTG,10.71,T,,M,0.39,N,0.72,K,D*00
$GPZDA,135800,16,05,2022,,*47
$TIROT,-12.9,A*2C
$TIROT,-12.6,A*23
$GPGGA,135801,5627.0764,N,00526.6126,W,2,4,4.19,65.94,M,52.83,M,3,0136*51
$GPGSA,A,3,21,16,08,10,,,,,,,,,10.66,4.19,9.8*03
$GPGLL,5627.0764,N,00526.6126,W,135801,A,D*5F
$GPGSV,3,1,12,26,07,164,27,23,41,070,30,21,29,236,40,18,11,060,30*7A
$GPGSV,3,2,12,16,35,172,43,15,11,034,28,07,21,290,23,08,56,280,42*79
$GPGSV,3,3,12,13,08,002,32,10,45,118,53,49,25,168,40,36,17,138,42*73
$HCHDT,8.5,T*24
$HCHDG,,0,E,2.2,W*60
$GPRMC,135801,A,5627.0764,N,00526.6126,W,0.23,4.24,160522,2.19,W,D,V*50
$HCTHS,8.4,A*27
$IIVHW,8.4,T,,M,,N,,K*77
$GPVTG,4.24,T,,M,0.23,N,0.43,K,D*3C
$GPZDA,135802,16,05,2022,,*45
$TIROT,-12.7,A*22
$TIROT,-12.8,A*2D
$HCHDT,8,T*3F
$HCHDG,,0,E,2.2,W*60
$HCTHS,8,A*3D
$IIVHW,8,T,,M,,N,,K*6D
$GPZDA,135804,16,05,2022,,*43
$GPGSV,3,1,12,26,07,164,33,23,41,070,28,21,29,236,23,18,11,060,20*72
$GPGSV,3,2,12,16,35,172,45,15,11,034,30,07,21,290,31,08,56,280,43*74
$GPGSV,3,3,12,13,08,002,29,10,45,118,52,49,25,168,38,36,17,138,37*75
$HCHDT,7.6,T*28
$HCHDG,,0,E,2.2,W*60
$HCTHS,7.5,A*29
$IIVHW,7.5,T,,M,,N,,K*79
$GPZDA,135806,16,05,2022,,*41
$TIROT,-13,A*3A
$GPGGA,135808,5627.0764,N,00526.6124,W,2,4,3,66.15,M,52.83,M,5,0136*77
$GPGLL,5627.0764,N,00526.6124,W,135808,A,D*54
$HCHDT,7.1,T*2F
$HCHDG,,0,E,2.2,W*60
$GPRMC,135808,A,5627.0764,N,00526.6124,W,0.08,174.65,160522,2.19,W,D,V*51
$HCTHS,7.1,A*2D
$IIVHW,7.1,T,,M,,N,,K*7D
$GPVTG,174.65,T,,M,0.08,N,0.14,K,D*34
$GPZDA,135808,16,05,2022,,*4F
$TIROT,-13,A*3A
$GPGGA,135810,5627.0764,N,00526.6124,W,2,4,3,66.12,M,52.83,M,4,0136*78
$GPGSA,A,3,26,16,08,10,,,,,,,,,4.76,3,3.7*14
$GPGLL,5627.0764,N,00526.6124,W,135810,A,D*5D
$GPGSV,3,1,12,26,07,164,36,23,41,070,28,21,29,236,29,18,11,060,29*74
$GPGSV,3,2,12,16,35,172,45,15,11,034,33,07,21,290,26,08,56,280,44*76
$GPGSV,3,3,12,13,07,002,31,10,45,118,53,49,25,168,39,36,17,138,37*73
$HCHDT,6.7,T*28
$HCHDG,,0,E,2.2,W*60
$GPRMC,135810,A,5627.0764,N,00526.6124,W,0.04,166.17,160522,2.19,W,D,V*52
$HCTHS,6.6,A*2B
$IIVHW,6.6,T,,M,,N,,K*7B
$GPVTG,166.17,T,,M,0.04,N,0.07,K,D*3C
$GPZDA,135810,16,05,2022,,*46
$TIROT,-13.1,A*25
$TIROT,-13.3,A*27
$GPGGA,135812,5627.0765,N,00526.6124,W,2,4,3,65.69,M,52.83,M,5,0136*75
$GPGLL,5627.0765,N,00526.6124,W,135812,A,D*5E
$HCHDT,6.2,T*2D
$HCHDG,,0,E,2.2,W*60
$GPRMC,135812,A,5627.0765,N,00526.6124,W,0.08,351.23,160522,2.19,W,D,V*5C
$HCTHS,6.2,A*2F
$IIVHW,6.2,T,,M,,N,,K*7F
$GPVTG,351.23,T,,M,0.08,N,0.14,K,D*33
$GPZDA,135812,16,05,2022,,*44
$TIROT,-13,A*3A
$TIROT,-13.1,A*25
$GPGGA,135814,5627.0765,N,00526.6123,W,2,4,3,65.67,M,52.83,M,4,0136*7B
$GPGSA,A,3,26,16,08,10,,,,,,,,,4.76,3,3.7*14
$GPGLL,5627.0765,N,00526.6123,W,135814,A,D*5F
$GPGSV,3,1,12,26,07,164,41,23,41,070,29,21,29,236,37,18,11,060,26*75
$GPGSV,3,2,12,16,35,172,41,15,11,034,35,07,21,290,32,08,56,280,43*76
$GPGSV,3,3,12,13,07,002,29,10,46,118,50,49,25,168,39,36,17,138,40*7A
$HCHDT,5.7,T*2B
$HCHDG,,0,E,2.2,W*60
$GPRMC,135814,A,5627.0765,N,00526.6124,W,0.33,16.64,160522,2.19,W,D,V*61
$HCTHS,5.7,A*29
$IIVHW,5.7,T,,M,,N,,K*79
$GPVTG,16.64,T,,M,0.33,N,0.61,K,D*0A
$GPZDA,135814,16,05,2022,,*42
$TIROT,-13.2,A*26
$TIROT,26.6,A*09
$GPGGA,135816,5627.0765,N,00526.6124,W,2,4,3,66.03,M,52.83,M,5,0136*7E
$GPGLL,5627.0765,N,00526.6124,W,135816,A,D*5A
$HCHDT,2.3,T*28
$HCHDG,,0,E,2.2,W*60
$GPRMC,135816,A,5627.0765,N,00526.6124,W,0.23,287.22,160522,2.19,W,D,V*5A
$HCTHS,1.1,A*2B
$IIVHW,1.1,T,,M,,N,,K*7B
$GPVTG,287.22,T,,M,0.23,N,0.43,K,D*33
$GPZDA,135816,16,05,2022,,*40
$TIROT,-173.7,A*14
$TIROT,-20.6,A*22
$GPGGA,135818,5627.0752,N,00526.6119,W,2,5,2.7,75.43,M,52.83,M,7,0136*67
$GPGSA,A,3,26,21,16,08,10,,,,,,,,4.58,2.7,3.7*03
$GPGLL,5627.0752,N,00526.6119,W,135818,A,D*5E
$GPGSV,3,1,12,26,07,164,40,23,41,070,34,21,29,236,43,18,11,060,26*7B
$GPGSV,3,2,12,16,35,172,46,15,11,034,33,07,21,290,34,08,56,280,48*7A
$GPGSV,3,3,12,13,07,002,20,10,46,118,53,49,25,168,48,36,17,138,46*70
$HCHDT,359.3,T*25
$HCHDG,,0,E,2.2,W*60
$GPRMC,135818,A,5627.0750,N,00526.6119,W,0.49,154.01,160522,2.19,W,D,V*5C
$HCTHS,358.5,A*20
$IIVHW,358.5,T,,M,,N,,K*70
$GPVTG,154.01,T,,M,0.49,N,0.9,K,D*0D
$GPZDA,135818,16,05,2022,,*4E
$TIROT,-85.5,A*2E
$TIROT,110.1,A*3A
$GPGGA,135820,5627.0753,N,00526.6122,W,2,5,2.7,75.85,M,52.83,M,9,0136*61
$GPGLL,5627.0753,N,00526.6122,W,135820,A,D*5C
$HCHDT,8.5,T*24
$HCHDG,,0,E,2.2,W*60
$GPRMC,135820,A,5627.0753,N,00526.6122,W,0.12,99.72,160522,2.19,W,D,V*66
$HCTHS,8.7,A*24
$IIVHW,8.7,T,,M,,N,,K*74
$GPVTG,99.72,T,,M,0.12,N,0.22,K,D*0E
$GPZDA,135820,16,05,2022,,*45
$TIROT,149.5,A*32
$TIROT,87.5,A*01
$GPGGA,135822,5627.0758,N,00526.6125,W,2,5,2.7,71.21,M,52.83,M,8,0136*64
$GPGSA,A,3,26,21,16,08,10,,,,,,,,4.58,2.7,3.7*03
$GPGLL,5627.0758,N,00526.6125,W,135822,A,D*52
$GPGSV,3,1,12,26,07,164,48,23,41,070,28,21,29,236,46,18,11,060,28*75
$GPGSV,3,2,12,16,35,172,46,15,11,034,34,07,21,290,35,08,56,280,48*7C
$GPGSV,3,3,12,13,07,002,33,10,46,118,53,49,25,168,47,36,17,138,43*78
$HCHDT,353,T*32
$HCHDG,,0,E,2.2,W*60
$GPRMC,135822,A,5627.0758,N,00526.6125,W,1.26,186.69,160522,2.19,W,D,C*4E
$HCTHS,352.7,A*28
$IIVHW,352.7,T,,M,,N,,K*78
$GPVTG,186.69,T,,M,1.26,N,2.34,K,D*38
$GPZDA,135822,16,05,2022,,*47
$TIROT,-337.9,A*18
$TIROT,-148,A*05
$GPGGA,135824,5627.0761,N,00526.6128,W,2,6,1.7,67.73,M,52.83,M,5,0136*68
$GPGLL,5627.0761,N,00526.6128,W,135824,A,D*53
$HCHDT,356.9,T*20
$HCHDG,,0,E,2.2,W*60
$GPRMC,135824,A,5627.0761,N,00526.6128,W,0.16,329.16,160522,2.19,W,D,C*42
$HCTHS,356.9,A*22
$IIVHW,356.9,T,,M,,N,,K*72
$GPVTG,329.16,T,,M,0.16,N,0.29,K,D*3B
$GPZDA,135824,16,05,2022,,*41
$TIROT,-40,A*3C
$TIROT,-73.9,A*2B
$GPGGA,135826,5627.0763,N,00526.6130,W,2,6,1.7,64.99,M,52.83,M,4,0136*67
$GPGSA,A,3,26,21,16,07,08,10,,,,,,,2.7,1.7,2.09*04
$GPGLL,5627.0763,N,00526.6130,W,135826,A,D*5A
$GPGSV,3,1,12,26,07,164,46,23,41,070,32,21,29,236,47,18,11,060,33*7B
$GPGSV,3,2,12,16,35,172,52,15,11,034,31,07,21,290,36,08,56,280,50*76
$GPGSV,3,3,12,13,07,002,34,10,46,118,49,49,25,168,48,36,17,138,45*7D
$HCHDT,354.2,T*29
$HCHDG,,0,E,2.2,W*60
$GPRMC,135826,A,5627.0764,N,00526.6130,W,0.17,7.73,160522,2.19,W,D,C*41
$HCTHS,354.1,A*28
$IIVHW,354.1,T,,M,,N,,K*78
$GPVTG,7.73,T,,M,0.17,N,0.32,K,D*3C
$GPZDA,135826,16,05,2022,,*43
$TIROT,-62.5,A*27
$TIROT,-10.5,A*22
$GPGGA,135828,5627.0766,N,00526.6132,W,2,6,1.7,62.12,M,52.83,M,5,0136*6A
$GPGLL,5627.0766,N,00526.6132,W,135828,A,D*53
$HCHDT,355.3,T*29
$HCHDG,,0,E,2.2,W*60
$GPRMC,135828,A,5627.0766,N,00526.6132,W,0.14,181.21,160522,2.19,W,D,S*54
$HCTHS,355.4,A*2C
$IIVHW,355.4,T,,M,,N,,K*7C
$GPVTG,181.21,T,,M,0.14,N,0.25,K,D*31
$GPZDA,135828,16,05,2022,,*4D
$TIROT,-2.9,A*1D
$TIROT,7.1,A*3D
$GPGGA,135830,5627.0767,N,00526.6133,W,2,6,1.7,59.81,M,52.83,M,4,0136*60
$GPGSA,A,3,26,21,16,07,08,10,,,,,,,2.7,1.7,2.09*04
$GPGLL,5627.0767,N,00526.6133,W,135830,A,D*5A
$GPGSV,3,1,12,26,07,164,45,23,41,070,35,21,29,236,49,18,11,060,35*77
$GPGSV,3,2,12,16,35,172,52,15,11,034,26,07,21,290,38,08,56,280,49*76
$GPGSV,3,3,12,13,07,002,30,10,46,118,49,49,25,168,45,36,17,138,44*75
$HCHDT,355.2,T*28
$HCHDG,,0,E,2.2,W*60
$GPRMC,135830,A,5627.0767,N,00526.6133,W,0,149.6,160522,2.19,W,D,S*47
$HCTHS,355.2,A*2A
$IIVHW,355.2,T,,M,,N,,K*7A
$GPVTG,149.6,T,,M,0,N,0,K,D*02
$GPZDA,135830,16,05,2022,,*44
$TIROT,-7.9,A*18
$TIROT,-33,A*38
$GPGGA,135832,5627.0768,N,00526.6134,W,2,6,1.7,58.25,M,52.83,M,5,0136*64
$GPGLL,5627.0768,N,00526.6134,W,135832,A,D*50
$HCHDT,354.2,T*29
$HCHDG,,0,E,2.2,W*60
$GPRMC,135832,A,5627.0768,N,00526.6134,W,0.12,147.32,160522,2.19,W,D,C*49
$HCTHS,354.2,A*2B
$IIVHW,354.2,T,,M,,N,,K*7B
$GPVTG,147.32,T,,M,0.12,N,0.22,K,D*38
$GPZDA,135832,16,05,2022,,*46
$TIROT,-16.8,A*29
$TIROT,0.6,A*3D
$GPGGA,135834,5627.0768,N,00526.6135,W,2,6,1.7,57.16,M,52.83,M,4,0136*6D
$GPGSA,A,3,26,21,16,07,08,10,,,,,,,2.7,1.7,2.09*04
$GPGLL,5627.0768,N,00526.6135,W,135834,A,D*57
$GPGSV,3,1,12,26,07,164,46,23,41,070,22,21,29,236,49,18,11,060,34*73
$GPGSV,3,2,12,16,35,170,52,15,11,034,22,07,21,290,38,08,56,280,48*71
$GPGSV,3,3,12,13,07,002,35,10,46,118,49,49,25,168,47,36,17,138,42*74
$HCHDT,357.7,T*2F
$HCHDG,,0,E,2.2,W*60
$GPRMC,135834,A,5627.0768,N,00526.6135,W,0.1,317.91,160522,2.19,W,D,C*72
$HCTHS,357.7,A*2D
$IIVHW,357.7,T,,M,,N,,K*7D
$GPVTG,317.91,T,,M,0.1,N,0.18,K,D*0D
$GPZDA,135834,16,05,2022,,*40
$TIROT,60.3,A*0E
$TIROT,54,A*14
$GPGGA,135836,5627.0769,N,00526.6134,W,2,6,1.7,56.58,M,52.83,M,5,0136*65
$GPGLL,5627.0769,N,00526.6134,W,135836,A,D*55
$HCHDT,355.8,T*22
$HCHDG,,0,E,2.2,W*60
$GPRMC,135836,A,5627.0769,N,00526.6134,W,0.08,140,160522,2.19,W,D,C*6F
$HCTHS,355.8,A*20
$IIVHW,355.8,T,,M,,N,,K*70
$GPVTG,140,T,,M,0.08,N,0.14,K,D*1E
$GPZDA,135836,16,05,2022,,*42
$TIROT,-26.3,A*21
$TIROT,-72.3,A*20
$GPGGA,135838,5627.0768,N,00526.6134,W,2,6,1.7,56.66,M,52.83,M,4,0136*66
$GPGSA,A,3,26,21,16,07,08,10,,,,,,,2.62,1.7,2*10
$GPGLL,5627.0768,N,00526.6134,W,135838,A,D*5A
$GPGSV,3,1,12,26,07,164,41,23,41,070,34,21,29,236,39,18,10,060,35*74
$GPGSV,3,2,12,16,35,170,51,15,11,034,29,07,21,290,36,08,56,280,49*76
$GPGSV,3,3,12,13,07,002,31,10,46,118,52,49,25,168,51,36,17,138,41*7E
$HCHDT,353.5,T*29
$HCHDG,,0,E,2.2,W*60
$GPRMC,135838,A,5627.0768,N,00526.6134,W,0.1,12.26,160522,2.19,W,D,C*45
$HCTHS,353.5,A*2B
$IIVHW,353.5,T,,M,,N,,K*7B
$GPVTG,12.26,T,,M,0.1,N,0.18,K,D*37
$GPZDA,135838,16,05,2022,,*4C
$TIROT,-41.1,A*22
$TIROT,-52.7,A*26
$GPGGA,135840,5627.0766,N,00526.6134,W,2,6,1.7,57.23,M,52.83,M,5,0136*66
$GPGLL,5627.0766,N,00526.6134,W,135840,A,D*5B
$HCHDT,353.4,T*28
$HCHDG,,0,E,2.2,W*60
$GPRMC,135840,A,5627.0766,N,00526.6134,W,0.12,36.42,160522,2.19,W,D,C*72
$HCTHS,353.4,A*2A
$IIVHW,353.4,T,,M,,N,,K*7A
$GPVTG,36.42,T,,M,0.12,N,0.22,K,D*08
$GPZDA,135840,16,05,2022,,*43
$TIROT,-28.8,A*24
$TIROT,-41.1,A*22
$GPGGA,135842,5627.0765,N,00526.6135,W,2,6,1.7,58.15,M,52.83,M,4,0136*6D
$GPGSA,A,3,26,21,16,07,08,10,,,,,,,2.62,1.7,2*10
$GPGLL,5627.0765,N,00526.6135,W,135842,A,D*5B
$GPGSV,3,1,12,26,07,164,46,23,41,070,27,21,29,236,42,18,10,060,28*71
$GPGSV,3,2,12,16,35,170,49,15,11,034,17,07,21,290,38,08,56,280,47*72
$GPGSV,3,3,12,13,07,002,28,10,46,118,52,49,25,168,45,36,17,138,41*73
$HCHDT,351.5,T*2B
$HCHDG,,0,E,2.2,W*60
$GPRMC,135842,A,5627.0765,N,00526.6135,W,0.23,150.9,160522,2.19,W,D,C*7E
$HCTHS,351.5,A*29
$IIVHW,351.5,T,,M,,N,,K*79
$GPVTG,150.9,T,,M,0.23,N,0.43,K,D*03
$GPZDA,135842,16,05,2022,,*41
$TIROT,-20.2,A*26
$TIROT,24.1,A*0C
$GPGGA,135844,5627.0763,N,00526.6137,W,2,6,1.7,58.58,M,52.83,M,5,0136*67
$GPGLL,5627.0763,N,00526.6137,W,135844,A,D*59
$HCHDT,351.8,T*26
$HCHDG,,0,E,2.2,W*60
$GPRMC,135844,A,5627.0763,N,00526.6137,W,0.25,316.6,160522,2.19,W,D,C*75
$HCTHS,351.8,A*24
$IIVHW,351.8,T,,M,,N,,K*74
$GPVTG,316.6,T,,M,0.25,N,0.47,K,D*0E
$GPZDA,135844,16,05,2022,,*47
$TIROT,12.9,A*01
$TIROT,-7.8,A*19
$GPGGA,135846,5627.0761,N,00526.6138,W,2,6,1.7,58.98,M,52.83,M,4,0136*65
$GPGSA,A,3,26,21,16,07,08,10,,,,,,,2.62,1.7,2*10
$GPGLL,5627.0761,N,00526.6138,W,135846,A,D*56
$GPGSV,3,1,12,26,07,164,48,23,41,070,17,21,29,236,47,18,10,060,35*75
$GPGSV,3,2,12,16,35,170,51,15,11,034,28,07,21,288,40,08,56,280,49*7F
$GPGSV,3,3,12,13,07,002,27,10,46,118,51,49,25,168,47,36,17,138,46*7A
$HCHDT,351.3,T*2D
$HCHDG,,0,E,2.2,W*60
$GPRMC,135846,A,5627.0761,N,00526.6138,W,0.04,349.6,160522,2.19,W,D,C*73
$HCTHS,351.3,A*2F
$IIVHW,351.3,T,,M,,N,,K*7F
$GPVTG,349.6,T,,M,0.04,N,0.07,K,D*03
$GPZDA,135846,16,05,2022,,*45
$TIROT,-45.5,A*22
$TIROT,47,A*16
$GPGGA,135848,5627.0759,N,00526.6139,W,2,6,1.7,59.29,M,52.83,M,5,0136*6B
$GPGLL,5627.0759,N,00526.6139,W,135848,A,D*52
$HCHDT,354.1,T*2A
$HCHDG,,0,E,2.2,W*60
$GPRMC,135848,A,5627.0759,N,00526.6139,W,0.45,97.61,160522,2.19,W,D,C*73
$HCTHS,354.1,A*28
$IIVHW,354.1,T,,M,,N,,K*78
$GPVTG,97.61,T,,M,0.45,N,0.83,K,D*0B
$GPZDA,135848,16,05,2022,,*4B
$TIROT,25,A*12
$TIROT,35.6,A*0B
$GPGGA,135850,5627.0758,N,00526.6140,W,2,6,1.7,59.42,M,52.83,M,4,0136*61
$GPGSA,A,3,26,21,16,07,08,10,,,,,,,2.62,1.7,2*10
$GPGLL,5627.0758,N,00526.6140,W,135850,A,D*54
$GPGSV,3,1,12,26,07,164,46,23,41,070,20,21,29,236,49,18,10,060,35*71
$GPGSV,3,2,12,16,35,170,51,15,11,034,31,07,21,288,42,08,56,280,49*75
$GPGSV,3,3,12,13,07,002,33,10,46,118,51,49,25,168,46,36,17,138,45*7D
$HCHDT,356.9,T*20
$HCHDG,,0,E,2.2,W*60
$GPRMC,135850,A,5627.0758,N,00526.6140,W,0.02,291.48,160522,2.19,W,D,C*49
$HCTHS,356.9,A*22
$IIVHW,356.9,T,,M,,N,,K*72
$GPVTG,291.48,T,,M,0.02,N,0.04,K,D*38
$GPZDA,135850,16,05,2022,,*42
$TIROT,64.5,A*0C
$TIROT,-90.3,A*2C
$GPGGA,135852,5627.0759,N,00526.6140,W,2,6,1.7,59.66,M,52.83,M,5,0136*65
$GPGLL,5627.0759,N,00526.6140,W,135852,A,D*57
$HCHDT,348.9,T*2F
$HCHDG,,0,E,2.2,W*60
$GPRMC,135852,A,5627.0759,N,00526.6140,W,0.35,330.83,160522,2.19,W,D,S*53
$HCTHS,348.9,A*2D
$IIVHW,348.9,T,,M,,N,,K*7D
$GPVTG,330.83,T,,M,0.35,N,0.65,K,D*36
$GPZDA,135852,16,05,2022,,*40
$TIROT,-116.8,A*18
$TIROT,26.4,A*0B
$GPGGA,135854,5627.0758,N,00526.6140,W,2,6,1.7,59.73,M,52.83,M,4,0136*67
$GPGSA,A,3,26,21,16,07,08,10,,,,,,,2.62,1.7,2*10
$GPGLL,5627.0758,N,00526.6140,W,135854,A,D*50
$GPGSV,3,1,12,26,07,164,48,23,41,070,35,21,29,236,47,18,10,060,34*74
$GPGSV,3,2,12,16,35,170,47,15,11,034,35,07,21,288,39,08,56,280,49*7A
$GPGSV,3,3,12,13,07,002,28,10,46,118,52,49,25,168,49,36,17,138,45*7B
$HCHDT,350.3,T*2C
$HCHDG,,0,E,2.2,W*60
$GPRMC,135854,A,5627.0758,N,00526.6140,W,0.12,86.33,160522,2.19,W,D,S*64
$HCTHS,350.3,A*2E
$IIVHW,350.3,T,,M,,N,,K*7E
$GPVTG,86.33,T,,M,0.12,N,0.22,K,D*05
$GPZDA,135854,16,05,2022,,*46
$TIROT,-50,A*3D
$TIROT,42.5,A*08
$GPGGA,135856,5627.0756,N,00526.6141,W,2,6,1.7,60.17,M,52.83,M,5,0136*63
$GPGLL,5627.0756,N,00526.6141,W,135856,A,D*5D
$HCHDT,354.4,T*2F
$HCHDG,,0,E,2.2,W*60
$GPRMC,135856,A,5627.0756,N,00526.6141,W,0.06,262.06,160522,2.19,W,D,S*52
$IIVHW,354.4,T,,M,,N,,K*7D
$HCTHS,354.4,A*2D
$GPVTG,262.06,T,,M,0.06,N,0.11,K,D*3E
$GPZDA,135856,16,05,2022,,*44
$TIROT,52.4,A*08
$TIROT,27,A*10
$GPGGA,135858,5627.0755,N,00526.6141,W,2,6,1.7,60.67,M,52.83,M,4,0136*68
$GPGSA,A,3,26,21,16,07,08,10,,,,,,,2.62,1.7,2*10
$GPGLL,5627.0755,N,00526.6141,W,135858,A,D*50
$GPGSV,3,1,12,26,07,164,47,23,41,070,30,21,29,236,44,18,10,060,33*7A
$GPGSV,3,2,12,16,35,170,53,15,11,034,22,07,21,288,40,08,56,280,49*77
$GPGSV,3,3,12,13,07,002,17,10,46,118,51,49,25,168,46,36,17,138,45*7B
$HCHDT,350.5,T*2A
$HCHDG,,0,E,2.2,W*60
$GPRMC,135858,A,5627.0755,N,00526.6141,W,0.21,26.75,160522,2.19,W,D,C*7C
$IIVHW,350.5,T,,M,,N,,K*78
$HCTHS,350.5,A*28
$GPVTG,26.75,T,,M,0.21,N,0.4,K,D*39
$GPZDA,135858,16,05,2022,,*4A
$TIROT,-91.8,A*26
$TIROT,-68.6,A*2E
$GPGGA,135900,5627.0754,N,00526.6142,W,2,6,1.7,60.72,M,52.83,M,5,0136*63
$GPGLL,5627.0754,N,00526.6142,W,135900,A,D*5E
$HCHDT,351.1,T*2F
$HCHDG,,0,E,2.2,W*60
$GPRMC,135900,A,5627.0754,N,00526.6142,W,0.27,226.36,160522,2.19,W,D,C*41
$IIVHW,351.1,T,,M,,N,,K*7D
$HCTHS,351.1,A*2D
$GPVTG,226.36,T,,M,0.27,N,0.5,K,D*0B
$GPZDA,135900,16,05,2022,,*46
$TIROT,-26.6,A*24
$TIROT,-44.9,A*2F
$GPGGA,135902,5627.0753,N,00526.6142,W,2,6,1.7,60.92,M,52.83,M,4,0136*69
$GPGSA,A,3,26,21,16,07,08,10,,,,,,,2.62,1.7,2*10
$GPGLL,5627.0753,N,00526.6142,W,135902,A,D*5B
$GPGSV,3,1,12,26,07,164,46,23,41,070,33,21,29,236,47,18,10,060,31*79
$GPGSV,3,2,12,16,35,170,48,15,11,034,29,07,21,288,39,08,56,280,48*79
$GPGSV,3,3,12,13,07,002,34,10,46,118,53,49,25,168,47,36,17,138,45*79
$HCHDT,344.6,T*2C
$HCHDG,,0,E,2.2,W*60
$GPRMC,135902,A,5627.0753,N,00526.6142,W,0.6,355.65,160522,2.19,W,D,C*74
$IIVHW,344.6,T,,M,,N,,K*7E
$HCTHS,344.6,A*2E
$GPVTG,355.65,T,,M,0.6,N,1.12,K,D*0C
$GPZDA,135902,16,05,2022,,*44
$TIROT,-96.9,A*20
$TIROT,-56.7,A*22
$GPGGA,135904,5627.0753,N,00526.6142,W,2,6,1.7,61.08,M,52.83,M,5,0136*6C
$GPGLL,5627.0753,N,00526.6142,W,135904,A,D*5D
$HCHDT,291.6,T*25
$HCHDG,,0,E,2.2,W*60
$GPRMC,135904,A,5627.0753,N,00526.6142,W,0.17,17.59,160522,2.19,W,D,C*78
$IIVHW,291.6,T,,M,,N,,K*77
$HCTHS,291.6,A*27
$GPVTG,17.59,T,,M,0.17,N,0.32,K,D*05
$GPZDA,135904,16,05,2022,,*42
$TIROT,-28.3,A*2F
$TIROT,6.2,A*3F
$GPGGA,135906,5627.0753,N,00526.6143,W,2,6,1.7,61.14,M,52.83,M,4,0136*63
$GPGSA,A,3,26,21,16,07,08,10,,,,,,,2.62,1.7,2*10
$GPGLL,5627.0753,N,00526.6143,W,135906,A,D*5E
$GPGSV,3,1,12,26,07,164,41,23,41,070,30,21,29,236,49,18,10,060,26*75
$GPGSV,3,2,12,16,35,170,51,15,11,034,31,07,21,288,37,08,57,280,47*78
$GPGSV,3,3,12,13,07,002,33,10,46,118,53,49,25,168,45,36,17,138,46*7F
$HCHDT,276.5,T*2F
$HCHDG,,0,E,2.2,W*60
$GPRMC,135906,A,5627.0753,N,00526.6143,W,0.06,91.91,160522,2.19,W,D,C*71
$IIVHW,276.5,T,,M,,N,,K*7D
$HCTHS,276.5,A*2D
$GPVTG,91.91,T,,M,0.06,N,0.11,K,D*0E
$GPZDA,135906,16,05,2022,,*40
$TIROT,-0.8,A*1E
$TIROT,-90.5,A*2A
$GPGGA,135908,5627.0753,N,00526.6143,W,2,6,1.7,61.43,M,52.83,M,5,0136*6E
$GPGLL,5627.0753,N,00526.6143,W,135908,A,D*50
$HCHDT,241.1,T*2F
$HCHDG,,0,E,2.2,W*60
$GPRMC,135908,A,5627.0753,N,00526.6143,W,0.16,220.95,160522,2.19,W,D,C*42
$IIVHW,241.1,T,,M,,N,,K*7D
$HCTHS,241.1,A*2D
$GPVTG,220.95,T,,M,0.16,N,0.29,K,D*38
$GPZDA,135908,16,05,2022,,*4E
$TIROT,41.1,A*0F
$TIROT,7,A*22
$GPGGA,135910,5627.0753,N,00526.6144,W,2,6,1.7,60.9,M,52.83,M,4,0136*5E
$GPGSA,A,3,26,21,16,07,08,10,,,,,,,2.62,1.7,2*10
$GPGLL,5627.0753,N,00526.6144,W,135910,A,D*5E
$GPGSV,3,1,12,26,07,164,47,23,41,070,35,21,29,236,49,18,10,060,23*73
$GPGSV,3,2,12,16,35,170,49,15,11,034,25,07,21,288,36,08,57,280,48*7A
$GPGSV,3,3,12,13,07,002,30,10,46,118,55,49,25,168,49,36,17,138,47*77
$HCHDT,209.4,T*26
$HCHDG,,0,E,2.2,W*60
$GPRMC,135910,A,5627.0753,N,00526.6144,W,0.51,164.87,160522,2.19,W,D,C*4F
$IIVHW,209.4,T,,M,,N,,K*74
$HCTHS,209.4,A*24
$GPVTG,164.87,T,,M,0.51,N,0.94,K,D*3D
$GPZDA,135910,16,05,2022,,*47
$TIROT,-38.5,A*28
$TIROT,-32.9,A*2E
$GPGGA,135912,5627.0753,N,00526.6145,W,2,6,1.7,60.8,M,52.83,M,5,0136*5D
$GPGLL,5627.0753,N,00526.6145,W,135912,A,D*5D
$HCHDT,198.6,T*2F
$HCHDG,,0,E,2.2,W*60
$GPRMC,135912,A,5627.0754,N,00526.6145,W,0.25,239.2,160522,2.19,W,D,C*7E
$IIVHW,198.6,T,,M,,N,,K*7D
$HCTHS,198.6,A*2D
$GPVTG,239.2,T,,M,0.25,N,0.47,K,D*06
$GPZDA,135912,16,05,2022,,*45
$TIROT,6,A*23
$TIROT,-102.5,A*10
$GPGGA,135914,5627.0753,N,00526.6145,W,2,6,1.7,60.9,M,52.83,M,4,0136*5B
$GPGSA,A,3,26,21,16,07,08,10,,,,,,,2.62,1.7,2*10
$GPGLL,5627.0753,N,00526.6145,W,135914,A,D*5B
$GPGSV,3,1,12,26,07,164,46,23,41,070,33,21,29,236,48,18,10,060,29*7F
$GPGSV,3,2,12,16,35,170,49,15,11,034,34,07,21,288,37,08,57,280,48*7B
$GPGSV,3,3,12,13,07,002,26,10,46,118,55,49,25,168,49,36,17,138,45*72
$HCHDT,215.8,T*27
$HCHDG,,0,E,2.2,W*60
$GPRMC,135914,A,5627.0753,N,00526.6145,W,0.49,223.59,160522,2.19,W,D,C*40
$IIVHW,215.8,T,,M,,N,,K*75
$HCTHS,215.8,A*25
$GPVTG,223.59,T,,M,0.49,N,0.9,K,D*03
$GPZDA,135914,16,05,2022,,*43
$TIROT,26.7,A*08
$TIROT,4.6,A*39
$GPGGA,135916,5627.0754,N,00526.6145,W,2,6,1.7,60.9,M,52.83,M,5,0136*5F
$GPGLL,5627.0754,N,00526.6145,W,135916,A,D*5E
$HCHDT,234.2,T*2E
$HCHDG,,0,E,2.2,W*60
$GPRMC,135916,A,5627.0754,N,00526.6145,W,0.12,61.6,160522,2.19,W,D,C*45
$IIVHW,234.2,T,,M,,N,,K*7C
$HCTHS,234.2,A*2C
$GPVTG,61.6,T,,M,0.12,N,0.22,K,D*3A
$GPZDA,135916,16,05,2022,,*41
$TIROT,-38.6,A*2B
$TIROT,240.8,A*35
$GPGGA,135918,5627.0754,N,00526.6145,W,2,6,1.7,60.96,M,52.83,M,4,0136*66
$GPGSA,A,3,26,21,16,07,08,10,,,,,,,2.62,1.7,2*10
$GPGLL,5627.0754,N,00526.6145,W,135918,A,D*50
$GPGSV,3,1,12,26,07,164,45,23,41,070,34,21,29,236,48,18,10,060,30*73
$GPGSV,3,2,12,16,35,170,50,15,11,034,26,07,21,288,37,08,57,280,49*71
$GPGSV,3,3,12,13,07,002,17,10,46,118,55,49,25,168,50,36,17,138,45*78
$HCHDT,270.2,T*2E
$HCHDG,,0,E,2.2,W*60
$GPRMC,135918,A,5627.0754,N,00526.6145,W,0.12,170.69,160522,2.19,W,D,C*43
$IIVHW,270.2,T,,M,,N,,K*7C
$HCTHS,270.2,A*2C
$GPVTG,170.69,T,,M,0.12,N,0.22,K,D*32
$GPZDA,135918,16,05,2022,,*4F
$TIROT,-33.4,A*22
$TIROT,-16.5,A*24
$GPGGA,135920,5627.0754,N,00526.6146,W,2,6,1.7,60.93,M,52.83,M,5,0136*6A
$GPGLL,5627.0754,N,00526.6146,W,135920,A,D*58
$HCHDT,271,T*33
$HCHDG,,0,E,2.2,W*60
$GPRMC,135920,A,5627.0754,N,00526.6146,W,0.19,180.36,160522,2.19,W,D,C*45
$IIVHW,271,T,,M,,N,,K*61
$HCTHS,271,A*31
$GPVTG,180.36,T,,M,0.19,N,0.36,K,D*39
$GPZDA,135920,16,05,2022,,*44
$TIROT,39.8,A*09
$TIROT,21.4,A*0C
$GPGGA,135922,5627.0754,N,00526.6146,W,2,6,1.7,60.91,M,52.83,M,4,0136*6B
$GPGSA,A,3,26,21,16,07,08,10,,,,,,,2.62,1.7,2*10
$GPGLL,5627.0754,N,00526.6146,W,135922,A,D*5A
$GPGSV,3,1,12,26,07,164,47,23,41,070,23,21,29,236,46,18,10,060,24*7C
$GPGSV,3,2,12,16,35,170,50,15,11,034,24,07,21,288,34,08,57,280,49*70
$GPGSV,3,3,12,13,07,002,34,10,46,118,55,49,25,168,50,36,17,138,44*78
$HCHDT,269.6,T*22
$HCHDG,,0,E,2.2,W*60
$GPRMC,135922,A,5627.0754,N,00526.6146,W,0.1,172.26,160522,2.19,W,D,C*72
$IIVHW,269.6,T,,M,,N,,K*70
$HCTHS,269.6,A*20
$GPVTG,172.26,T,,M,0.1,N,0.18,K,D*00
$GPZDA,135922,16,05,2022,,*46
$TIROT,9.3,A*31
$TIROT,-3.6,A*13
$GPGGA,135924,5627.0753,N,00526.6146,W,2,6,1.7,60.91,M,52.83,M,5,0136*6B
$GPGLL,5627.0753,N,00526.6146,W,135924,A,D*5B
$HCHDT,268.8,T*2D
$HCHDG,,0,E,2.2,W*60
$GPRMC,135924,A,5627.0754,N,00526.6146,W,0.06,172.82,160522,2.19,W,D,C*4D
$IIVHW,268.8,T,,M,,N,,K*7F
$HCTHS,268.8,A*2F
$GPVTG,172.82,T,,M,0.06,N,0.11,K,D*30
$GPZDA,135924,16,05,2022,,*40
$TIROT,-25.8,A*29
$TIROT,152.5,A*38
$GPGGA,135926,5627.0754,N,00526.6147,W,2,6,1.7,60.67,M,52.83,M,4,0136*67
$GPGSA,A,3,26,21,16,07,08,10,,,,,,,2.62,1.7,2*10
$GPGLL,5627.0754,N,00526.6147,W,135926,A,D*5F
$GPGSV,3,1,12,26,07,164,44,23,41,070,32,21,29,236,49,18,10,060,24*70
$GPGSV,3,2,12,16,35,170,49,15,11,034,27,07,21,288,36,08,57,280,48*78
$GPGSV,3,3,12,13,07,002,33,10,46,118,54,49,25,168,48,36,17,138,43*70
$HCHDT,301.1,T*2A
$HCHDG,,0,E,2.2,W*60
$GPRMC,135926,A,5627.0754,N,00526.6147,W,0.1,227.32,160522,2.19,W,D,C*71
$IIVHW,301.1,T,,M,,N,,K*78
$HCTHS,301.1,A*28
$GPVTG,227.32,T,,M,0.1,N,0.18,K,D*06
$GPZDA,135926,16,05,2022,,*42
$TIROT,75.2,A*0B
$TIROT,54,A*14
$GPGGA,135928,5627.0754,N,00526.6147,W,2,6,1.7,60.53,M,52.83,M,5,0136*6F
$GPGLL,5627.0754,N,00526.6147,W,135928,A,D*51
$HCHDT,299.8,T*23
$HCHDG,,0,E,2.2,W*60
$GPRMC,135928,A,5627.0754,N,00526.6147,W,0.08,135.45,160522,2.19,W,D,C*46
$IIVHW,299.8,T,,M,,N,,K*71
$HCTHS,299.8,A*21
$GPVTG,135.45,T,,M,0.08,N,0.14,K,D*33
$GPZDA,135928,16,05,2022,,*4C
$TIROT,35.5,A*08
$TIROT,7,A*22
$GPGGA,135930,5627.0754,N,00526.6147,W,2,6,1.7,60.69,M,52.83,M,4,0136*6E
$GPGSA,A,3,26,21,16,07,08,10,,,,,,,2.62,1.7,2*10
$GPGLL,5627.0754,N,00526.6147,W,135930,A,D*58
$GPGSV,3,1,12,26,07,164,45,23,41,070,22,21,29,236,46,18,10,060,31*7B
$GPGSV,3,2,12,16,35,170,49,15,11,034,30,07,21,288,39,08,57,280,49*70
$GPGSV,3,3,12,13,07,002,29,10,46,118,53,49,25,168,48,36,17,138,43*7C
$HCHDT,294.5,T*23
$HCHDG,,0,E,2.2,W*60
$GPRMC,135930,A,5627.0753,N,00526.6147,W,0.1,12.65,160522,2.19,W,D,C*47
$IIVHW,294.5,T,,M,,N,,K*71
$HCTHS,294.5,A*21
$GPVTG,12.65,T,,M,0.1,N,0.18,K,D*30
$GPZDA,135930,16,05,2022,,*45
$TIROT,-24.9,A*29
$TIROT,-1,A*09
$GPGGA,135932,5627.0752,N,00526.6147,W,2,6,1.7,61.22,M,52.83,M,5,0136*65
$GPGLL,5627.0752,N,00526.6147,W,135932,A,D*5C
$HCHDT,292.6,T*26
$HCHDG,,0,E,2.2,W*60
$GPRMC,135932,A,5627.0752,N,00526.6147,W,0.12,3.55,160522,2.19,W,D,C*45
$IIVHW,292.6,T,,M,,N,,K*74
$HCTHS,292.6,A*24
$GPVTG,3.55,T,,M,0.12,N,0.22,K,D*38
$GPZDA,135932,16,05,2022,,*47
$TIROT,-7.6,A*17
$TIROT,14.7,A*09
$GPGGA,135934,5627.0751,N,00526.6147,W,2,6,1.7,61.85,M,52.83,M,4,0136*6C
$GPGSA,A,3,26,21,16,07,08,10,,,,,,,2.62,1.7,2*10
$GPGLL,5627.0751,N,00526.6147,W,135934,A,D*59
$GPGSV,3,1,12,26,07,164,43,23,41,070,29,21,29,236,44,18,10,060,25*71
$GPGSV,3,2,12,16,35,170,48,15,11,034,32,07,21,288,40,08,57,280,49*7D
$GPGSV,3,3,12,13,07,002,32,10,46,116,52,49,25,168,48,36,17,138,43*79
$HCHDT,291.1,T*22
$HCHDG,,0,E,2.2,W*60
$GPRMC,135934,A,5627.0751,N,00526.6147,W,0.17,358.61,160522,2.19,W,D,C*4F
$IIVHW,291.1,T,,M,,N,,K*70
$HCTHS,291.1,A*20
$GPVTG,358.61,T,,M,0.17,N,0.32,K,D*36
$GPZDA,135934,16,05,2022,,*41
$TIROT,1.1,A*3B
$TIROT,-0.9,A*1F
$GPGGA,135936,5627.0749,N,00526.6147,W,2,6,1.7,62.33,M,52.83,M,5,0136*68
$GPGLL,5627.0749,N,00526.6147,W,135936,A,D*52
$HCHDT,290.4,T*26
$HCHDG,,0,E,2.2,W*60
$GPRMC,135936,A,5627.0749,N,00526.6147,W,0.12,336.5,160522,2.19,W,D,C*7B
$IIVHW,290.4,T,,M,,N,,K*74
$HCTHS,290.4,A*24
$GPVTG,336.5,T,,M,0.12,N,0.22,K,D*08
$GPZDA,135936,16,05,2022,,*43
$TIROT,21.3,A*0B
$TIROT,27.3,A*0D
$GPGGA,135938,5627.0750,N,00526.6147,W,2,6,1.7,62.47,M,52.83,M,4,0136*6C
$GPGSA,A,3,26,21,16,07,08,10,,,,,,,2.62,1.7,2*10
$GPGLL,5627.0750,N,00526.6147,W,135938,A,D*54
$GPGSV,3,1,12,26,07,164,46,23,41,070,34,21,30,236,43,18,10,060,20*72
$GPGSV,3,2,12,16,35,170,47,15,11,034,31,07,21,288,39,08,57,280,49*7F
$GPGSV,3,3,12,13,07,002,31,10,46,116,50,49,25,168,44,36,17,138,44*73
$HCHDT,289.9,T*23
$HCHDG,,0,E,2.2,W*60
$GPRMC,135938,A,5627.0750,N,00526.6147,W,0.12,231.15,160522,2.19,W,D,C*4A
$IIVHW,289.9,T,,M,,N,,K*71
$HCTHS,289.9,A*21
$GPVTG,231.15,T,,M,0.12,N,0.22,K,D*3F
$GPZDA,135938,16,05,2022,,*4D
$TIROT,15.3,A*0C
$TIROT,0.1,A*3A
$GPGGA,135940,5627.0749,N,00526.6147,W,2,6,1.7,62.89,M,52.83,M,5,0136*68
$GPGLL,5627.0749,N,00526.6147,W,135940,A,D*53
$HCHDT,289.7,T*2D
$HCHDG,,0,E,2.2,W*60
$GPRMC,135940,A,5627.0749,N,00526.6147,W,0.23,161.28,160522,2.19,W,D,C*47
$IIVHW,289.7,T,,M,,N,,K*7F
$HCTHS,289.7,A*2F
$GPVTG,161.28,T,,M,0.23,N,0.43,K,D*32
$GPZDA,135940,16,05,2022,,*42
$TIROT,22.1,A*0A
$TIROT,-6.3,A*13
$GPGGA,135942,5627.0749,N,00526.6146,W,2,6,1.7,63.08,M,52.83,M,4,0136*62
$GPGSA,A,3,26,21,16,07,08,10,,,,,,,2.62,1.7,2*10
$GPGLL,5627.0749,N,00526.6146,W,135942,A,D*50
$GPGSV,3,1,12,26,07,164,44,23,41,070,31,21,30,236,44,18,10,060,33*70
$GPGSV,3,2,12,16,35,170,48,15,11,034,17,07,21,288,38,08,57,280,47*7B
$GPGSV,3,3,12,13,07,002,28,10,46,116,53,49,25,168,45,36,17,138,44*79
$HCHDT,288.7,T*2C
$HCHDG,,0,E,2.2,W*60
$GPRMC,135942,A,5627.0750,N,00526.6146,W,0.1,138.92,160522,2.19,W,D,C*71
$IIVHW,288.7,T,,M,,N,,K*7E
$HCTHS,288.7,A*2E
$GPVTG,138.92,T,,M,0.1,N,0.18,K,D*01
$GPZDA,135942,16,05,2022,,*40
$TIROT,9.2,A*30
$TIROT,-69.8,A*21
$GPGGA,135944,5627.0749,N,00526.6147,W,2,6,1.7,63.09,M,52.83,M,5,0136*65
$GPGLL,5627.0749,N,00526.6147,W,135944,A,D*57
$HCHDT,286.3,T*26
$HCHDG,,0,E,2.2,W*60
$GPRMC,135944,A,5627.0749,N,00526.6147,W,0.02,123.03,160522,2.19,W,D,C*4F
$IIVHW,286.3,T,,M,,N,,K*74
$HCTHS,286.3,A*24
$GPVTG,123.03,T,,M,0.02,N,0.04,K,D*3D
$GPZDA,135944,16,05,2022,,*46
$TIROT,-20.2,A*26
$TIROT,11.1,A*0A
$GPGGA,135946,5627.0749,N,00526.6148,W,2,6,1.7,63.09,M,52.83,M,4,0136*69
$GPGSA,A,3,26,21,16,07,08,10,,,,,,,2.62,1.7,2*10
$GPGLL,5627.0749,N,00526.6148,W,135946,A,D*5A
$GPGSV,3,1,12,26,07,164,44,23,41,070,20,21,30,236,45,18,10,060,30*72
$GPGSV,3,2,12,16,35,170,48,15,11,034,33,07,21,288,39,08,57,280,50*7A
$GPGSV,3,3,12,13,07,002,32,10,46,116,52,49,25,168,44,36,17,138,44*72
$HCHDT,285.9,T*2F
$HCHDG,,0,E,2.2,W*60
$GPRMC,135946,A,5627.0749,N,00526.6148,W,0.1,65.8,160522,2.19,W,D,C*79
$IIVHW,285.9,T,,M,,N,,K*7D
$HCTHS,285.9,A*2D
$GPVTG,65.8,T,,M,0.1,N,0.18,K,D*0B
$GPZDA,135946,16,05,2022,,*44
$TIROT,-53.2,A*22
$TIROT,-68.5,A*2D
$GPGGA,135948,5627.0749,N,00526.6148,W,2,6,1.7,63.03,M,52.83,M,5,0136*6C
$GPGLL,5627.0749,N,00526.6148,W,135948,A,D*54
$HCHDT,283.4,T*24
$HCHDG,,0,E,2.2,W*60
$GPRMC,135948,A,5627.0749,N,00526.6148,W,0.02,174.57,160522,2.19,W,D,C*4F
$IIVHW,283.4,T,,M,,N,,K*76
$HCTHS,283.4,A*26
$GPVTG,174.57,T,,M,0.02,N,0.04,K,D*3E
$GPZDA,135948,16,05,2022,,*4A
$TIROT,-34.9,A*28
$TIROT,-27.5,A*26
$GPGGA,135950,5627.0749,N,00526.6148,W,2,6,1.7,62.87,M,52.83,M,4,0136*69
$GPGSA,A,3,26,21,16,07,08,10,,,,,,,2.62,1.7,2*10
$GPGLL,5627.0749,N,00526.6148,W,135950,A,D*5D
$GPGSV,3,1,12,26,07,164,40,23,41,070,35,21,30,236,45,18,10,060,24*77
$GPGSV,3,2,12,16,35,170,47,15,11,034,30,07,21,288,40,08,57,280,50*78
$GPGSV,3,3,12,13,07,002,34,10,46,116,52,49,25,168,47,36,17,138,36*72
$HCHDT,282.1,T*20
$HCHDG,,0,E,2.2,W*60
$GPRMC,135950,A,5627.0749,N,00526.6149,W,0.12,70.42,160522,2.19,W,D,C*77
$IIVHW,282.1,T,,M,,N,,K*72
$HCTHS,282.1,A*22
$GPVTG,70.42,T,,M,0.12,N,0.22,K,D*0A
$GPZDA,135950,16,05,2022,,*43
$TIROT,-41.8,A*2B
$TIROT,-128.3,A*1E
$GPGGA,135952,5627.0750,N,00526.6149,W,2,6,1.7,62.73,M,52.83,M,5,0136*68
$GPGLL,5627.0750,N,00526.6149,W,135952,A,D*56
$HCHDT,274.7,T*2F
$HCHDG,,0,E,2.2,W*60
$GPRMC,135952,A,5627.0750,N,00526.6149,W,0.12,108.8,160522,2.19,W,D,S*6D
$IIVHW,274.7,T,,M,,N,,K*7D
$HCTHS,274.7,A*2D
$GPVTG,108.8,T,,M,0.12,N,0.22,K,D*0A
$GPZDA,135952,16,05,2022,,*41
$TIROT,-162.4,A*17
$TIROT,-28.8,A*24
$GPGGA,135954,5627.0750,N,00526.6149,W,2,6,1.7,62.44,M,52.83,M,4,0136*6B
$GPGSA,A,3,26,21,16,07,08,10,,,,,,,2.62,1.7,2*10
$GPGSV,3,1,12,26,06,164,42,23,41,070,31,21,30,236,48,18,10,060,33*7B
$GPGSV,3,2,12,16,35,170,47,15,11,034,30,07,21,288,38,08,57,280,50*77
$GPGSV,3,3,12,13,07,002,35,10,46,116,55,49,25,168,45,36,17,138,44*73
$GPGLL,5627.0750,N,00526.6149,W,135954,A,D*50
$HCHDT,277.8,T*23
$HCHDG,,0,E,2.2,W*60
$GPRMC,135954,A,5627.0750,N,00526.6149,W,0.12,222.86,160522,2.19,W,D,S*56
$IIVHW,277.8,T,,M,,N,,K*71
$HCTHS,277.8,A*21
$GPVTG,222.86,T,,M,0.12,N,0.22,K,D*37
$GPZDA,135954,16,05,2022,,*47
$TIROT,9.1,A*33
$TIROT,-22.3,A*25
$GPGGA,135956,5627.0750,N,00526.6150,W,2,6,1.7,62.21,M,52.83,M,5,0136*63
$GPGLL,5627.0750,N,00526.6150,W,135956,A,D*5A
$HCHDT,276.8,T*22
$HCHDG,,0,E,2.2,W*60
$GPRMC,135956,A,5627.0750,N,00526.6150,W,0.1,172.39,160522,2.19,W,D,S*6C
$IIVHW,276.8,T,,M,,N,,K*70
$HCTHS,276.8,A*20
$GPVTG,172.39,T,,M,0.1,N,0.18,K,D*0E
$GPZDA,135956,16,05,2022,,*45
$TIROT,-15.4,A*26
$TIROT,6.2,A*3F
$GPGGA,135958,5627.0751,N,00526.6150,W,2,6,1.7,61.93,M,52.83,M,4,0136*67
$GPGSA,A,3,26,21,16,07,08,10,,,,,,,2.62,1.7,2*10
$GPGSV,3,1,12,26,06,164,45,23,41,070,28,21,30,236,48,18,10,060,35*72
$GPGSV,3,2,12,16,35,170,49,15,11,034,20,07,21,288,38,08,57,280,51*79
$GPGSV,3,3,12,13,07,002,35,10,46,116,55,49,25,168,50,36,17,138,41*72
$GPGLL,5627.0751,N,00526.6150,W,135958,A,D*55
$HCHDT,276.4,T*2E
$HCHDG,,0,E,2.2,W*60
$GPRMC,135958,A,5627.0751,N,00526.6150,W,0.25,133.75,160522,2.19,W,D,S*58
$IIVHW,276.4,T,,M,,N,,K*7C
$HCTHS,276.4,A*2C
$GPVTG,133.75,T,,M,0.25,N,0.47,K,D*3F
$GPZDA,135958,16,05,2022,,*4B
$TIROT,-12,A*3B
$TIROT,-11.6,A*20
$GPGGA,140000,5627.0751,N,00526.6150,W,2,6,1.7,61.59,M,52.83,M,5,0136*66
$GPGLL,5627.0751,N,00526.6150,W,140000,A,D*53
$HCHDT,275.7,T*2E
$HCHDG,,0,E,2.2,W*60
$GPRMC,140000,A,5627.0751,N,00526.6150,W,0.16,116.84,160522,2.19,W,D,S*57
$IIVHW,275.7,T,,M,,N,,K*7C
$HCTHS,275.7,A*2C
$GPVTG,116.84,T,,M,0.16,N,0.29,K,D*3E
$GPZDA,140000,16,05,2022,,*4D
$TIROT,-16.4,A*25
$TIROT,-37.5,A*27
$GPGGA,140002,5627.0752,N,00526.6150,W,2,6,1.7,61.2,M,52.83,M,4,0136*58
$GPGSA,A,3,26,21,16,07,08,10,,,,,,,2.62,1.7,2*10
$GPGSV,3,1,12,26,06,164,42,23,41,070,32,21,30,236,46,18,10,060,28*7C
$GPGSV,3,2,12,16,35,170,46,15,11,034,26,07,21,288,38,08,57,280,50*71
$GPGSV,3,3,12,13,07,002,22,10,46,116,55,49,25,168,45,36,17,138,44*75
$GPGLL,5627.0752,N,00526.6150,W,140002,A,D*52
$HCHDT,273.4,T*2B
$HCHDG,,0,E,2.2,W*60
$GPRMC,140002,A,5627.0752,N,00526.6150,W,0.12,107.32,160522,2.19,W,D,S*5F
$IIVHW,273.4,T,,M,,N,,K*79
$HCTHS,273.4,A*29
$GPVTG,107.32,T,,M,0.12,N,0.22,K,D*3C
$GPZDA,140002,16,05,2022,,*4F
$TIROT,-52.2,A*23
$TIROT,-52,A*3F
$GPGGA,140004,5627.0752,N,00526.6150,W,2,6,1.7,60.84,M,52.83,M,5,0136*60
$GPGLL,5627.0752,N,00526.6150,W,140004,A,D*54
$HCHDT,273,T*31
$HCHDG,,0,E,2.2,W*60
$GPRMC,140004,A,5627.0752,N,00526.6150,W,0.02,333.86,160522,2.19,W,D,S*52
$IIVHW,273,T,,M,,N,,K*63
$HCTHS,273,A*33
$GPVTG,333.86,T,,M,0.02,N,0.04,K,D*33
$GPZDA,140004,16,05,2022,,*49
$TIROT,-37.6,A*24
$TIROT,-11.5,A*23
$GPGGA,140006,5627.0753,N,00526.6150,W,2,6,1.7,60.23,M,52.83,M,4,0136*6F
$GPGSA,A,3,26,21,16,07,08,10,,,,,,,2.62,1.7,2*10
$GPGSV,3,1,12,26,06,164,40,23,41,070,35,21,30,236,46,18,10,060,24*75
$GPGSV,3,2,12,16,34,170,47,15,11,034,26,07,21,288,38,08,57,280,49*79
$GPGSV,3,3,12,13,07,002,33,10,46,116,55,49,25,168,45,36,17,138,44*75
$GPGLL,5627.0753,N,00526.6150,W,140006,A,D*57
$HCHDT,273,T*31
$HCHDG,,0,E,2.2,W*60
$GPRMC,140006,A,5627.0753,N,00526.6150,W,0.08,279.05,160522,2.19,W,D,S*5F
$IIVHW,273,T,,M,,N,,K*63
$HCTHS,273,A*33
$GPVTG,279.05,T,,M,0.08,N,0.14,K,D*3C
$GPZDA,140006,16,05,2022,,*4B
$TIROT,-18.9,A*26
$TIROT,-23.2,A*25
$GPGGA,140008,5627.0755,N,00526.6149,W,2,6,1.7,59.63,M,52.83,M,5,0136*60
$GPGLL,5627.0755,N,00526.6149,W,140008,A,D*57
$HCHDT,272.7,T*29
$HCHDG,,0,E,2.2,W*60
$GPRMC,140008,A,5627.0755,N,00526.6149,W,0.12,193.24,160522,2.19,W,D,C*40
$IIVHW,272.7,T,,M,,N,,K*7B
$HCTHS,272.7,A*2B
$GPVTG,193.24,T,,M,0.12,N,0.22,K,D*36
$GPZDA,140008,16,05,2022,,*45
$TIROT,-30.6,A*23
$TIROT,-26.9,A*2B
$GPGGA,140010,5627.0756,N,00526.6149,W,2,6,1.7,59.13,M,52.83,M,4,0136*6C
$GPGSA,A,3,26,21,16,07,08,10,,,,,,,2.62,1.7,2*10
$GPGSV,3,1,12,26,06,164,38,23,41,070,27,21,30,236,46,18,10,060,27*7A
$GPGSV,3,2,12,16,34,170,46,15,11,034,28,07,21,288,39,08,57,280,50*7F
$GPGSV,3,3,12,13,07,002,23,10,46,116,55,49,25,168,43,36,17,138,45*73
$GPGLL,5627.0756,N,00526.6149,W,140010,A,D*5D
$HCHDT,272.1,T*2F
$HCHDG,,0,E,2.2,W*60
$GPRMC,140010,A,5627.0756,N,00526.6149,W,0.04,139.08,160522,2.19,W,D,C*43
$IIVHW,272.1,T,,M,,N,,K*7D
$HCTHS,272.1,A*2D
$GPVTG,139.08,T,,M,0.04,N,0.07,K,D*38
$GPZDA,140010,16,05,2022,,*4C
$TIROT,-33.4,A*22
$TIROT,-34.4,A*25
$GPGGA,140012,5627.0756,N,00526.6149,W,2,6,1.7,58.88,M,52.83,M,5,0136*6C
$GPGLL,5627.0756,N,00526.6149,W,140012,A,D*5F
$HCHDT,272.2,T*2C
$HCHDG,,0,E,2.2,W*60
$GPRMC,140012,A,5627.0756,N,00526.6149,W,0.14,161.81,160522,2.19,W,D,C*4C
$IIVHW,272.2,T,,M,,N,,K*7E
$HCTHS,272.2,A*2E
$GPVTG,161.81,T,,M,0.14,N,0.25,K,D*35
$GPZDA,140012,16,05,2022,,*4E
$TIROT,-12.7,A*22
$TIROT,-21.1,A*24
$GPGGA,140014,5627.0756,N,00526.6149,W,2,6,1.7,58.84,M,52.83,M,4,0136*67
$GPGSA,A,3,26,21,16,07,08,10,,,,,,,2.62,1.7,2*10
$GPGSV,3,1,12,26,06,164,42,23,41,070,27,21,30,236,46,18,10,060,28*78
$GPGSV,3,2,12,16,34,170,48,15,11,034,25,07,21,288,39,08,57,280,50*7C
$GPGSV,3,3,12,13,07,002,26,10,46,116,55,49,25,168,47,36,17,138,44*73
$GPGLL,5627.0756,N,00526.6149,W,140014,A,D*59
$HCHDT,272.6,T*28
$HCHDG,,0,E,2.2,W*60
$GPRMC,140014,A,5627.0756,N,00526.6149,W,0.16,38.15,160522,2.19,W,D,C*78
$IIVHW,272.6,T,,M,,N,,K*7A
$HCTHS,272.6,A*2A
$GPVTG,38.15,T,,M,0.16,N,0.29,K,D*0B
$GPZDA,140014,16,05,2022,,*48
$TIROT,-16.9,A*28
$TIROT,4.4,A*3B
$GPGGA,140016,5627.0756,N,00526.6149,W,2,6,1.7,58.76,M,52.83,M,5,0136*69
$GPGLL,5627.0756,N,00526.6149,W,140016,A,D*5B
$HCHDT,272.3,T*2D
$HCHDG,,0,E,2.2,W*60
$GPRMC,140016,A,5627.0756,N,00526.6149,W,0.19,355.76,160522,2.19,W,D,C*48
$IIVHW,272.3,T,,M,,N,,K*7F
$HCTHS,272.3,A*2F
$GPVTG,355.76,T,,M,0.19,N,0.36,K,D*37
$GPZDA,140016,16,05,2022,,*4A
$TIROT,-26.4,A*26
$TIROT,-6.7,A*17
$GPGGA,140018,5627.0756,N,00526.6150,W,2,6,1.7,58.56,M,52.83,M,4,0136*6C
$GPGSA,A,3,26,21,16,07,08,10,,,,,,,2.62,1.7,2*10
$GPGSV,3,1,12,26,06,164,43,23,41,070,35,21,30,236,47,18,10,060,30*72
$GPGSV,3,2,12,16,34,170,49,15,11,034,28,07,21,288,39,08,57,280,50*70
$GPGSV,3,3,12,13,07,002,31,10,46,116,55,49,25,168,50,36,17,138,42*75
$GPGLL,5627.0756,N,00526.6150,W,140018,A,D*5D
$HCHDT,272,T*30
$HCHDG,,0,E,2.2,W*60
$GPRMC,140018,A,5627.0756,N,00526.6150,W,0.04,213.62,160522,2.19,W,D,S*54
$IIVHW,272,T,,M,,N,,K*62
$HCTHS,272,A*32
$GPVTG,213.62,T,,M,0.04,N,0.07,K,D*3F
$GPZDA,140018,16,05,2022,,*44
$TIROT,-42.3,A*23
$TIROT,-29.4,A*29
$GPGGA,140020,5627.0757,N,00526.6150,W,2,6,1.7,58.28,M,52.83,M,5,0136*6E
$GPGLL,5627.0757,N,00526.6150,W,140020,A,D*57
$HCHDT,271.5,T*28
$HCHDG,,0,E,2.2,W*60
$GPRMC,140020,A,5627.0757,N,00526.6150,W,0.06,343.28,160522,2.19,W,D,S*56
$IIVHW,271.5,T,,M,,N,,K*7A
$HCTHS,271.5,A*2A
$GPVTG,343.28,T,,M,0.06,N,0.11,K,D*30
$GPZDA,140020,16,05,2022,,*4F
$TIROT,-23.2,A*25
$TIROT,-12.7,A*22
$GPGGA,140022,5627.0757,N,00526.6150,W,2,6,1.7,58.09,M,52.83,M,4,0136*6E
$GPGSA,A,3,26,21,16,07,08,10,,,,,,,2.62,1.7,2*10
$GPGSV,3,1,12,26,06,164,42,23,41,070,29,21,30,236,46,18,10,060,30*7F
$GPGSV,3,2,12,16,34,170,49,15,11,034,32,07,21,288,39,08,57,280,50*7B
$GPGSV,3,3,12,13,07,002,28,10,46,116,54,49,25,168,50,36,17,138,43*7D
$GPGLL,5627.0757,N,00526.6150,W,140022,A,D*55
$HCHDT,272,T*30
$HCHDG,,0,E,2.2,W*60
$GPRMC,140022,A,5627.0757,N,00526.6150,W,0.02,20.32,160522,2.19,W,D,C*7D
$IIVHW,272,T,,M,,N,,K*62
$HCTHS,272,A*32
$GPVTG,20.32,T,,M,0.02,N,0.04,K,D*0D
$GPZDA,140022,16,05,2022,,*4D
$TIROT,-20.9,A*2D
$TIROT,-17.2,A*22
$GPGGA,140024,5627.0756,N,00526.6150,W,2,6,1.7,58.26,M,52.83,M,5,0136*65
$GPGLL,5627.0756,N,00526.6150,W,140024,A,D*52
$HCHDT,271.9,T*24
$HCHDG,,0,E,2.2,W*60
$GPRMC,140024,A,5627.0756,N,00526.6150,W,0.14,199.46,160522,2.19,W,D,C*4D
$IIVHW,271.9,T,,M,,N,,K*76
$HCTHS,271.9,A*26
$GPVTG,199.46,T,,M,0.14,N,0.25,K,D*39
$GPZDA,140024,16,05,2022,,*4B
$TIROT,-28.4,A*28
$TIROT,-37.1,A*23
$GPGGA,140026,5627.0756,N,00526.6151,W,2,6,1.7,58.42,M,52.83,M,4,0136*65
$GPGSA,A,3,26,21,16,07,08,10,,,,,,,2.62,1.7,2*10
$GPGSV,3,1,12,26,06,164,40,23,41,070,33,21,30,236,47,18,10,060,22*74
$GPGSV,3,2,12,16,34,170,48,15,11,034,24,07,21,288,39,08,57,280,50*7D
$GPGSV,3,3,12,13,07,002,29,10,46,116,54,49,25,168,49,36,17,138,44*73
$GPGLL,5627.0756,N,00526.6151,W,140026,A,D*51
$HCHDT,271,T*33
$HCHDG,,0,E,2.2,W*60
$GPRMC,140026,A,5627.0756,N,00526.6151,W,0.1,270.61,160522,2.19,W,D,C*7B
$IIVHW,271,T,,M,,N,,K*61
$HCTHS,271,A*31
$GPVTG,270.61,T,,M,0.1,N,0.18,K,D*02
$GPZDA,140026,16,05,2022,,*49
$TIROT,-42,A*3E
$TIROT,-41.4,A*27
$GPGGA,140028,5627.0755,N,00526.6151,W,2,6,1.7,58.57,M,52.83,M,5,0136*6D
$GPGLL,5627.0755,N,00526.6151,W,140028,A,D*5C
$HCHDT,270.5,T*29
$HCHDG,,0,E,2.2,W*60
$GPRMC,140028,A,5627.0755,N,00526.6151,W,0.1,41.26,160522,2.19,W,D,C*45
$IIVHW,270.5,T,,M,,N,,K*7B
$HCTHS,270.5,A*2B
$GPVTG,41.26,T,,M,0.1,N,0.18,K,D*31
$GPZDA,140028,16,05,2022,,*47
$TIROT,-40.4,A*26
$TIROT,-38.4,A*29
$GPGGA,140030,5627.0755,N,00526.6151,W,2,6,1.7,58.73,M,52.83,M,4,0136*63
$GPGSA,A,3,26,21,16,07,08,10,,,,,,,2.62,1.7,2*10
$GPGSV,3,1,12,26,06,164,39,23,41,070,28,21,30,236,47,18,10,060,35*76
$GPGSV,3,2,12,16,34,170,47,15,11,034,35,07,21,288,39,08,57,280,50*72
$GPGSV,3,3,12,13,07,002,28,10,46,116,54,49,25,168,46,36,17,138,45*7C
$GPGLL,5627.0755,N,00526.6151,W,140030,A,D*55
$HCHDT,270.2,T*2E
$HCHDG,,0,E,2.2,W*60
$GPRMC,140030,A,5627.0755,N,00526.6151,W,0,59.62,160522,2.19,W,D,C*5A
$IIVHW,270.2,T,,M,,N,,K*7C
$HCTHS,270.2,A*2C
$GPVTG,59.62,T,,M,0,N,0,K,D*00
$GPZDA,140030,16,05,2022,,*4E
$TIROT,-34.5,A*24
$TIROT,-31,A*3A
$GPGGA,140032,5627.0755,N,00526.6153,W,2,6,1.7,58.8,M,52.83,M,5,0136*5E
$GPGLL,5627.0755,N,00526.6153,W,140032,A,D*55
$HCHDT,271.7,T*2A
$HCHDG,,0,E,2.2,W*60
$GPRMC,140032,A,5627.0755,N,00526.6153,W,0.1,173.07,160522,2.19,W,D,S*6F
$IIVHW,271.7,T,,M,,N,,K*78
$HCTHS,271.7,A*28
$GPVTG,173.07,T,,M,0.1,N,0.18,K,D*02
$GPZDA,140032,16,05,2022,,*4C
$TIROT,-6.9,A*19
$TIROT,-49.2,A*29
$GPGGA,140034,5627.0755,N,00526.6168,W,2,6,1.7,59.08,M,52.83,M,4,0136*60
$GPGSA,A,3,26,21,16,07,08,10,,,,,,,2.62,1.7,2*10
